<?xml version="1.0" encoding="Windows-1252"?>
<TransXChange CreationDateTime="2023-07-20T21:52:40.8385005+01:00" ModificationDateTime="2023-07-20T21:52:40.8385005+01:00" Modification="new" FileName="mer_1-9-_-y11-19.xml" RevisionNumber="3" SchemaVersion="2.1" xml:lang="en" xsi:schemaLocation="http://www.transxchange.org.uk/ http://www.transxchange.org.uk/schema/2.1/TransXChange_general.xsd" xmlns:xsi="http://www.w3.org/2001/XMLSchema-instance" xmlns="http://www.transxchange.org.uk/">
	<NptgLocalities>
		<AnnotatedNptgLocalityRef>
			<NptgLocalityRef>E0029682</NptgLocalityRef>
			<LocalityName>Dovecot</LocalityName>
		</AnnotatedNptgLocalityRef>
		<AnnotatedNptgLocalityRef>
			<NptgLocalityRef>E0029769</NptgLocalityRef>
			<LocalityName>Knotty Ash</LocalityName>
		</AnnotatedNptgLocalityRef>
		<AnnotatedNptgLocalityRef>
			<NptgLocalityRef>E0052681</NptgLocalityRef>
			<LocalityName>Knowsley</LocalityName>
		</AnnotatedNptgLocalityRef>
		<AnnotatedNptgLocalityRef>
			<NptgLocalityRef>E0029843</NptgLocalityRef>
			<LocalityName>Page Moss</LocalityName>
		</AnnotatedNptgLocalityRef>
		<AnnotatedNptgLocalityRef>
			<NptgLocalityRef>E0029867</NptgLocalityRef>
			<LocalityName>Roby</LocalityName>
		</AnnotatedNptgLocalityRef>
		<AnnotatedNptgLocalityRef>
			<NptgLocalityRef>E0029753</NptgLocalityRef>
			<LocalityName>Huyton</LocalityName>
		</AnnotatedNptgLocalityRef>
		<AnnotatedNptgLocalityRef>
			<NptgLocalityRef>E0057850</NptgLocalityRef>
			<LocalityName>Liverpool</LocalityName>
		</AnnotatedNptgLocalityRef>
		<AnnotatedNptgLocalityRef>
			<NptgLocalityRef>E0029834</NptgLocalityRef>
			<LocalityName>Old Swan</LocalityName>
		</AnnotatedNptgLocalityRef>
		<AnnotatedNptgLocalityRef>
			<NptgLocalityRef>E0029787</NptgLocalityRef>
			<LocalityName>Longview</LocalityName>
		</AnnotatedNptgLocalityRef>
		<AnnotatedNptgLocalityRef>
			<NptgLocalityRef>E0029954</NptgLocalityRef>
			<LocalityName>Woolfall Heath</LocalityName>
		</AnnotatedNptgLocalityRef>
		<AnnotatedNptgLocalityRef>
			<NptgLocalityRef>E0029695</NptgLocalityRef>
			<LocalityName>Fairfield (Mersyd)</LocalityName>
		</AnnotatedNptgLocalityRef>
		<AnnotatedNptgLocalityRef>
			<NptgLocalityRef>E0029763</NptgLocalityRef>
			<LocalityName>Kensington (Mersyd)</LocalityName>
		</AnnotatedNptgLocalityRef>
		<AnnotatedNptgLocalityRef>
			<NptgLocalityRef>E0029890</NptgLocalityRef>
			<LocalityName>Stanley (Mersyd)</LocalityName>
		</AnnotatedNptgLocalityRef>
		<AnnotatedNptgLocalityRef>
			<NptgLocalityRef>E0029756</NptgLocalityRef>
			<LocalityName>Huyton Quarry</LocalityName>
		</AnnotatedNptgLocalityRef>
	</NptgLocalities>
	<StopPoints>
		<StopPoint CreationDateTime="2017-01-19T00:00:00">
			<AtcoCode>2800S44006B</AtcoCode>
			<Descriptor>
				<CommonName>Dovecot Avenue</CommonName>
			</Descriptor>
			<Place>
				<NptgLocalityRef>E0029682</NptgLocalityRef>
				<Location>
					<Longitude>-2.87798</Longitude>
					<Latitude>53.419884</Latitude>
				</Location>
			</Place>
			<StopClassification>
				<StopType>BCS</StopType>
				<OffStreet>
					<BusAndCoach>
						<Bay>
							<TimingStatus>otherPoint</TimingStatus>
						</Bay>
					</BusAndCoach>
				</OffStreet>
			</StopClassification>
			<AdministrativeAreaRef>000</AdministrativeAreaRef>
			<Notes>Dovecot Avenue</Notes>
		</StopPoint>
		<StopPoint CreationDateTime="2018-01-19T00:00:00">
			<AtcoCode>2800S44004B</AtcoCode>
			<Descriptor>
				<CommonName>Newenham Crescent</CommonName>
			</Descriptor>
			<Place>
				<NptgLocalityRef>E0029769</NptgLocalityRef>
				<Location>
					<Longitude>-2.887107</Longitude>
					<Latitude>53.418109</Latitude>
				</Location>
			</Place>
			<StopClassification>
				<StopType>BCS</StopType>
				<OffStreet>
					<BusAndCoach>
						<Bay>
							<TimingStatus>otherPoint</TimingStatus>
						</Bay>
					</BusAndCoach>
				</OffStreet>
			</StopClassification>
			<AdministrativeAreaRef>000</AdministrativeAreaRef>
			<Notes>Newenham Crescent</Notes>
		</StopPoint>
		<StopPoint CreationDateTime="2016-12-12T00:00:00">
			<AtcoCode>2800S44143B</AtcoCode>
			<Descriptor>
				<CommonName>Somerford Road</CommonName>
			</Descriptor>
			<Place>
				<NptgLocalityRef>E0029682</NptgLocalityRef>
				<Location>
					<Longitude>-2.874404</Longitude>
					<Latitude>53.420144</Latitude>
				</Location>
			</Place>
			<StopClassification>
				<StopType>BCS</StopType>
				<OffStreet>
					<BusAndCoach>
						<Bay>
							<TimingStatus>otherPoint</TimingStatus>
						</Bay>
					</BusAndCoach>
				</OffStreet>
			</StopClassification>
			<AdministrativeAreaRef>000</AdministrativeAreaRef>
			<Notes>Somerford Road</Notes>
		</StopPoint>
		<StopPoint CreationDateTime="2017-02-09T00:00:00">
			<AtcoCode>2800S44128B</AtcoCode>
			<Descriptor>
				<CommonName>Wellcroft Road</CommonName>
			</Descriptor>
			<Place>
				<NptgLocalityRef>E0052681</NptgLocalityRef>
				<Location>
					<Longitude>-2.833871</Longitude>
					<Latitude>53.421144</Latitude>
				</Location>
			</Place>
			<StopClassification>
				<StopType>BCS</StopType>
				<OffStreet>
					<BusAndCoach>
						<Bay>
							<TimingStatus>otherPoint</TimingStatus>
						</Bay>
					</BusAndCoach>
				</OffStreet>
			</StopClassification>
			<AdministrativeAreaRef>000</AdministrativeAreaRef>
			<Notes>Wellcroft Road</Notes>
		</StopPoint>
		<StopPoint CreationDateTime="2019-12-04T00:00:00">
			<AtcoCode>2800S44123B</AtcoCode>
			<Descriptor>
				<CommonName>Page Moss Avenue</CommonName>
			</Descriptor>
			<Place>
				<NptgLocalityRef>E0029843</NptgLocalityRef>
				<Location>
					<Longitude>-2.862886</Longitude>
					<Latitude>53.42128</Latitude>
				</Location>
			</Place>
			<StopClassification>
				<StopType>BCS</StopType>
				<OffStreet>
					<BusAndCoach>
						<Bay>
							<TimingStatus>otherPoint</TimingStatus>
						</Bay>
					</BusAndCoach>
				</OffStreet>
			</StopClassification>
			<AdministrativeAreaRef>000</AdministrativeAreaRef>
			<Notes>Page Moss Avenue</Notes>
		</StopPoint>
		<StopPoint CreationDateTime="2017-02-07T00:00:00">
			<AtcoCode>2800S44091B</AtcoCode>
			<Descriptor>
				<CommonName>Sergrim Road</CommonName>
			</Descriptor>
			<Place>
				<NptgLocalityRef>E0029867</NptgLocalityRef>
				<Location>
					<Longitude>-2.852203</Longitude>
					<Latitude>53.413824</Latitude>
				</Location>
			</Place>
			<StopClassification>
				<StopType>BCS</StopType>
				<OffStreet>
					<BusAndCoach>
						<Bay>
							<TimingStatus>otherPoint</TimingStatus>
						</Bay>
					</BusAndCoach>
				</OffStreet>
			</StopClassification>
			<AdministrativeAreaRef>000</AdministrativeAreaRef>
			<Notes>Sergrim Road</Notes>
		</StopPoint>
		<StopPoint CreationDateTime="2017-02-08T00:00:00">
			<AtcoCode>2800S44090B</AtcoCode>
			<Descriptor>
				<CommonName>Woodlands Road</CommonName>
			</Descriptor>
			<Place>
				<NptgLocalityRef>E0029843</NptgLocalityRef>
				<Location>
					<Longitude>-2.857616</Longitude>
					<Latitude>53.414396</Latitude>
				</Location>
			</Place>
			<StopClassification>
				<StopType>BCS</StopType>
				<OffStreet>
					<BusAndCoach>
						<Bay>
							<TimingStatus>otherPoint</TimingStatus>
						</Bay>
					</BusAndCoach>
				</OffStreet>
			</StopClassification>
			<AdministrativeAreaRef>000</AdministrativeAreaRef>
			<Notes>Woodlands Road</Notes>
		</StopPoint>
		<StopPoint CreationDateTime="2017-01-13T00:00:00">
			<AtcoCode>2800S44086B</AtcoCode>
			<Descriptor>
				<CommonName>Page Moss Lane</CommonName>
			</Descriptor>
			<Place>
				<NptgLocalityRef>E0029682</NptgLocalityRef>
				<Location>
					<Longitude>-2.871618</Longitude>
					<Latitude>53.412686</Latitude>
				</Location>
			</Place>
			<StopClassification>
				<StopType>BCS</StopType>
				<OffStreet>
					<BusAndCoach>
						<Bay>
							<TimingStatus>otherPoint</TimingStatus>
						</Bay>
					</BusAndCoach>
				</OffStreet>
			</StopClassification>
			<AdministrativeAreaRef>000</AdministrativeAreaRef>
			<Notes>Page Moss Lane</Notes>
		</StopPoint>
		<StopPoint CreationDateTime="2017-01-13T00:00:00">
			<AtcoCode>2800S44085B</AtcoCode>
			<Descriptor>
				<CommonName>Adcote Road</CommonName>
			</Descriptor>
			<Place>
				<NptgLocalityRef>E0029682</NptgLocalityRef>
				<Location>
					<Longitude>-2.876287</Longitude>
					<Latitude>53.414405</Latitude>
				</Location>
			</Place>
			<StopClassification>
				<StopType>BCS</StopType>
				<OffStreet>
					<BusAndCoach>
						<Bay>
							<TimingStatus>otherPoint</TimingStatus>
						</Bay>
					</BusAndCoach>
				</OffStreet>
			</StopClassification>
			<AdministrativeAreaRef>000</AdministrativeAreaRef>
			<Notes>Adcote Road</Notes>
		</StopPoint>
		<StopPoint CreationDateTime="2016-11-08T00:00:00">
			<AtcoCode>2800S44084B</AtcoCode>
			<Descriptor>
				<CommonName>Dovecot Avenue</CommonName>
			</Descriptor>
			<Place>
				<NptgLocalityRef>E0029682</NptgLocalityRef>
				<Location>
					<Longitude>-2.882215</Longitude>
					<Latitude>53.416563</Latitude>
				</Location>
			</Place>
			<StopClassification>
				<StopType>BCS</StopType>
				<OffStreet>
					<BusAndCoach>
						<Bay>
							<TimingStatus>otherPoint</TimingStatus>
						</Bay>
					</BusAndCoach>
				</OffStreet>
			</StopClassification>
			<AdministrativeAreaRef>000</AdministrativeAreaRef>
			<Notes>Dovecot Avenue</Notes>
		</StopPoint>
		<StopPoint CreationDateTime="2017-02-07T00:00:00">
			<AtcoCode>2800S44089B</AtcoCode>
			<Descriptor>
				<CommonName>Beechburn Crescent</CommonName>
			</Descriptor>
			<Place>
				<NptgLocalityRef>E0029843</NptgLocalityRef>
				<Location>
					<Longitude>-2.861096</Longitude>
					<Latitude>53.414641</Latitude>
				</Location>
			</Place>
			<StopClassification>
				<StopType>BCS</StopType>
				<OffStreet>
					<BusAndCoach>
						<Bay>
							<TimingStatus>otherPoint</TimingStatus>
						</Bay>
					</BusAndCoach>
				</OffStreet>
			</StopClassification>
			<AdministrativeAreaRef>000</AdministrativeAreaRef>
			<Notes>Beechburn Crescent</Notes>
		</StopPoint>
		<StopPoint CreationDateTime="2017-02-07T00:00:00">
			<AtcoCode>2800S44088B</AtcoCode>
			<Descriptor>
				<CommonName>Windsor Road</CommonName>
			</Descriptor>
			<Place>
				<NptgLocalityRef>E0029843</NptgLocalityRef>
				<Location>
					<Longitude>-2.865166</Longitude>
					<Latitude>53.415007</Latitude>
				</Location>
			</Place>
			<StopClassification>
				<StopType>BCS</StopType>
				<OffStreet>
					<BusAndCoach>
						<Bay>
							<TimingStatus>otherPoint</TimingStatus>
						</Bay>
					</BusAndCoach>
				</OffStreet>
			</StopClassification>
			<AdministrativeAreaRef>000</AdministrativeAreaRef>
			<Notes>Windsor Road</Notes>
		</StopPoint>
		<StopPoint CreationDateTime="2016-11-09T00:00:00">
			<AtcoCode>2800S44087B</AtcoCode>
			<Descriptor>
				<CommonName>Ancroft Road</CommonName>
			</Descriptor>
			<Place>
				<NptgLocalityRef>E0029682</NptgLocalityRef>
				<Location>
					<Longitude>-2.86935</Longitude>
					<Latitude>53.415084</Latitude>
				</Location>
			</Place>
			<StopClassification>
				<StopType>BCS</StopType>
				<OffStreet>
					<BusAndCoach>
						<Bay>
							<TimingStatus>otherPoint</TimingStatus>
						</Bay>
					</BusAndCoach>
				</OffStreet>
			</StopClassification>
			<AdministrativeAreaRef>000</AdministrativeAreaRef>
			<Notes>Ancroft Road</Notes>
		</StopPoint>
		<StopPoint CreationDateTime="2013-11-15T00:00:00">
			<AtcoCode>2800S44188E</AtcoCode>
			<Descriptor>
				<CommonName>Huyton Bus Station</CommonName>
			</Descriptor>
			<Place>
				<NptgLocalityRef>E0029753</NptgLocalityRef>
				<Location>
					<Longitude>-2.838091</Longitude>
					<Latitude>53.410014</Latitude>
				</Location>
			</Place>
			<StopClassification>
				<StopType>BCS</StopType>
				<OffStreet>
					<BusAndCoach>
						<Bay>
							<TimingStatus>otherPoint</TimingStatus>
						</Bay>
					</BusAndCoach>
				</OffStreet>
			</StopClassification>
			<AdministrativeAreaRef>000</AdministrativeAreaRef>
			<Notes>Huyton Bus Station</Notes>
		</StopPoint>
		<StopPoint CreationDateTime="2017-01-04T00:00:00">
			<AtcoCode>2800S42057C</AtcoCode>
			<Descriptor>
				<CommonName>Fraser Street</CommonName>
			</Descriptor>
			<Place>
				<NptgLocalityRef>E0057850</NptgLocalityRef>
				<Location>
					<Longitude>-2.976676</Longitude>
					<Latitude>53.409401</Latitude>
				</Location>
			</Place>
			<StopClassification>
				<StopType>BCS</StopType>
				<OffStreet>
					<BusAndCoach>
						<Bay>
							<TimingStatus>otherPoint</TimingStatus>
						</Bay>
					</BusAndCoach>
				</OffStreet>
			</StopClassification>
			<AdministrativeAreaRef>000</AdministrativeAreaRef>
			<Notes>Fraser Street</Notes>
		</StopPoint>
		<StopPoint CreationDateTime="2016-11-17T00:00:00">
			<AtcoCode>2800S41142B</AtcoCode>
			<Descriptor>
				<CommonName>Barrymore Road</CommonName>
			</Descriptor>
			<Place>
				<NptgLocalityRef>E0029834</NptgLocalityRef>
				<Location>
					<Longitude>-2.925768</Longitude>
					<Latitude>53.414939</Latitude>
				</Location>
			</Place>
			<StopClassification>
				<StopType>BCS</StopType>
				<OffStreet>
					<BusAndCoach>
						<Bay>
							<TimingStatus>otherPoint</TimingStatus>
						</Bay>
					</BusAndCoach>
				</OffStreet>
			</StopClassification>
			<AdministrativeAreaRef>000</AdministrativeAreaRef>
			<Notes>Barrymore Road</Notes>
		</StopPoint>
		<StopPoint CreationDateTime="2017-01-13T00:00:00">
			<AtcoCode>2800S42015E</AtcoCode>
			<Descriptor>
				<CommonName>Pembroke Place</CommonName>
			</Descriptor>
			<Place>
				<NptgLocalityRef>E0057850</NptgLocalityRef>
				<Location>
					<Longitude>-2.97285</Longitude>
					<Latitude>53.409189</Latitude>
				</Location>
			</Place>
			<StopClassification>
				<StopType>BCS</StopType>
				<OffStreet>
					<BusAndCoach>
						<Bay>
							<TimingStatus>otherPoint</TimingStatus>
						</Bay>
					</BusAndCoach>
				</OffStreet>
			</StopClassification>
			<AdministrativeAreaRef>000</AdministrativeAreaRef>
			<Notes>Pembroke Place</Notes>
		</StopPoint>
		<StopPoint CreationDateTime="2017-01-13T00:00:00">
			<AtcoCode>2800S42015C</AtcoCode>
			<Descriptor>
				<CommonName>Greek Street</CommonName>
			</Descriptor>
			<Place>
				<NptgLocalityRef>E0057850</NptgLocalityRef>
				<Location>
					<Longitude>-2.972876</Longitude>
					<Latitude>53.409009</Latitude>
				</Location>
			</Place>
			<StopClassification>
				<StopType>BCS</StopType>
				<OffStreet>
					<BusAndCoach>
						<Bay>
							<TimingStatus>otherPoint</TimingStatus>
						</Bay>
					</BusAndCoach>
				</OffStreet>
			</StopClassification>
			<AdministrativeAreaRef>000</AdministrativeAreaRef>
			<Notes>Greek Street</Notes>
		</StopPoint>
		<StopPoint CreationDateTime="2023-03-14T00:00:00">
			<AtcoCode>2800S42016B</AtcoCode>
			<Descriptor>
				<CommonName>Epworth Street</CommonName>
			</Descriptor>
			<Place>
				<NptgLocalityRef>E0057850</NptgLocalityRef>
				<Location>
					<Longitude>-2.966188</Longitude>
					<Latitude>53.410628</Latitude>
				</Location>
			</Place>
			<StopClassification>
				<StopType>BCS</StopType>
				<OffStreet>
					<BusAndCoach>
						<Bay>
							<TimingStatus>otherPoint</TimingStatus>
						</Bay>
					</BusAndCoach>
				</OffStreet>
			</StopClassification>
			<AdministrativeAreaRef>000</AdministrativeAreaRef>
			<Notes>Epworth Street</Notes>
		</StopPoint>
		<StopPoint CreationDateTime="2017-01-04T00:00:00">
			<AtcoCode>2800S42016A</AtcoCode>
			<Descriptor>
				<CommonName>Epworth Street</CommonName>
			</Descriptor>
			<Place>
				<NptgLocalityRef>E0057850</NptgLocalityRef>
				<Location>
					<Longitude>-2.966485</Longitude>
					<Latitude>53.410436</Latitude>
				</Location>
			</Place>
			<StopClassification>
				<StopType>BCS</StopType>
				<OffStreet>
					<BusAndCoach>
						<Bay>
							<TimingStatus>otherPoint</TimingStatus>
						</Bay>
					</BusAndCoach>
				</OffStreet>
			</StopClassification>
			<AdministrativeAreaRef>000</AdministrativeAreaRef>
			<Notes>Epworth Street</Notes>
		</StopPoint>
		<StopPoint CreationDateTime="2019-12-12T00:00:00">
			<AtcoCode>2800S44002B</AtcoCode>
			<Descriptor>
				<CommonName>Rudyard Road</CommonName>
			</Descriptor>
			<Place>
				<NptgLocalityRef>E0029769</NptgLocalityRef>
				<Location>
					<Longitude>-2.898816</Longitude>
					<Latitude>53.416844</Latitude>
				</Location>
			</Place>
			<StopClassification>
				<StopType>BCS</StopType>
				<OffStreet>
					<BusAndCoach>
						<Bay>
							<TimingStatus>otherPoint</TimingStatus>
						</Bay>
					</BusAndCoach>
				</OffStreet>
			</StopClassification>
			<AdministrativeAreaRef>000</AdministrativeAreaRef>
			<Notes>Rudyard Road</Notes>
		</StopPoint>
		<StopPoint CreationDateTime="2016-10-26T00:00:00">
			<AtcoCode>2800S44002A</AtcoCode>
			<Descriptor>
				<CommonName>Chatterton Road</CommonName>
			</Descriptor>
			<Place>
				<NptgLocalityRef>E0029834</NptgLocalityRef>
				<Location>
					<Longitude>-2.901386</Longitude>
					<Latitude>53.416708</Latitude>
				</Location>
			</Place>
			<StopClassification>
				<StopType>BCS</StopType>
				<OffStreet>
					<BusAndCoach>
						<Bay>
							<TimingStatus>otherPoint</TimingStatus>
						</Bay>
					</BusAndCoach>
				</OffStreet>
			</StopClassification>
			<AdministrativeAreaRef>000</AdministrativeAreaRef>
			<Notes>Chatterton Road</Notes>
		</StopPoint>
		<StopPoint CreationDateTime="2016-10-26T00:00:00">
			<AtcoCode>2800S44001C</AtcoCode>
			<Descriptor>
				<CommonName>Queens Drive</CommonName>
			</Descriptor>
			<Place>
				<NptgLocalityRef>E0029834</NptgLocalityRef>
				<Location>
					<Longitude>-2.904552</Longitude>
					<Latitude>53.415578</Latitude>
				</Location>
			</Place>
			<StopClassification>
				<StopType>BCS</StopType>
				<OffStreet>
					<BusAndCoach>
						<Bay>
							<TimingStatus>otherPoint</TimingStatus>
						</Bay>
					</BusAndCoach>
				</OffStreet>
			</StopClassification>
			<AdministrativeAreaRef>000</AdministrativeAreaRef>
			<Notes>Queens Drive</Notes>
		</StopPoint>
		<StopPoint CreationDateTime="2016-10-31T00:00:00">
			<AtcoCode>2800S44004C</AtcoCode>
			<Descriptor>
				<CommonName>Pilch Bank Road</CommonName>
			</Descriptor>
			<Place>
				<NptgLocalityRef>E0029682</NptgLocalityRef>
				<Location>
					<Longitude>-2.887033</Longitude>
					<Latitude>53.418882</Latitude>
				</Location>
			</Place>
			<StopClassification>
				<StopType>BCS</StopType>
				<OffStreet>
					<BusAndCoach>
						<Bay>
							<TimingStatus>otherPoint</TimingStatus>
						</Bay>
					</BusAndCoach>
				</OffStreet>
			</StopClassification>
			<AdministrativeAreaRef>000</AdministrativeAreaRef>
			<Notes>Pilch Bank Road</Notes>
		</StopPoint>
		<StopPoint CreationDateTime="2016-10-26T00:00:00">
			<AtcoCode>2800S44003B</AtcoCode>
			<Descriptor>
				<CommonName>Eaton Road</CommonName>
			</Descriptor>
			<Place>
				<NptgLocalityRef>E0029769</NptgLocalityRef>
				<Location>
					<Longitude>-2.892023</Longitude>
					<Latitude>53.418648</Latitude>
				</Location>
			</Place>
			<StopClassification>
				<StopType>BCS</StopType>
				<OffStreet>
					<BusAndCoach>
						<Bay>
							<TimingStatus>otherPoint</TimingStatus>
						</Bay>
					</BusAndCoach>
				</OffStreet>
			</StopClassification>
			<AdministrativeAreaRef>000</AdministrativeAreaRef>
			<Notes>Eaton Road</Notes>
		</StopPoint>
		<StopPoint CreationDateTime="2019-12-12T00:00:00">
			<AtcoCode>2800S44003A</AtcoCode>
			<Descriptor>
				<CommonName>Thomas Lane</CommonName>
			</Descriptor>
			<Place>
				<NptgLocalityRef>E0029769</NptgLocalityRef>
				<Location>
					<Longitude>-2.894034</Longitude>
					<Latitude>53.417662</Latitude>
				</Location>
			</Place>
			<StopClassification>
				<StopType>BCS</StopType>
				<OffStreet>
					<BusAndCoach>
						<Bay>
							<TimingStatus>otherPoint</TimingStatus>
						</Bay>
					</BusAndCoach>
				</OffStreet>
			</StopClassification>
			<AdministrativeAreaRef>000</AdministrativeAreaRef>
			<Notes>Thomas Lane</Notes>
		</StopPoint>
		<StopPoint CreationDateTime="2016-10-26T00:00:00">
			<AtcoCode>2800S44001B</AtcoCode>
			<Descriptor>
				<CommonName>Black Horse Lane</CommonName>
			</Descriptor>
			<Place>
				<NptgLocalityRef>E0029834</NptgLocalityRef>
				<Location>
					<Longitude>-2.907847</Longitude>
					<Latitude>53.414879</Latitude>
				</Location>
			</Place>
			<StopClassification>
				<StopType>BCS</StopType>
				<OffStreet>
					<BusAndCoach>
						<Bay>
							<TimingStatus>otherPoint</TimingStatus>
						</Bay>
					</BusAndCoach>
				</OffStreet>
			</StopClassification>
			<AdministrativeAreaRef>000</AdministrativeAreaRef>
			<Notes>Black Horse Lane</Notes>
		</StopPoint>
		<StopPoint CreationDateTime="2017-02-06T00:00:00">
			<AtcoCode>2800S44013A</AtcoCode>
			<Descriptor>
				<CommonName>Parbrook Road</CommonName>
			</Descriptor>
			<Place>
				<NptgLocalityRef>E0029787</NptgLocalityRef>
				<Location>
					<Longitude>-2.848805</Longitude>
					<Latitude>53.424518</Latitude>
				</Location>
			</Place>
			<StopClassification>
				<StopType>BCS</StopType>
				<OffStreet>
					<BusAndCoach>
						<Bay>
							<TimingStatus>otherPoint</TimingStatus>
						</Bay>
					</BusAndCoach>
				</OffStreet>
			</StopClassification>
			<AdministrativeAreaRef>000</AdministrativeAreaRef>
			<Notes>Parbrook Road</Notes>
		</StopPoint>
		<StopPoint CreationDateTime="2013-10-16T00:00:00">
			<AtcoCode>2800S44014A</AtcoCode>
			<Descriptor>
				<CommonName>Nyland Road</CommonName>
			</Descriptor>
			<Place>
				<NptgLocalityRef>E0029787</NptgLocalityRef>
				<Location>
					<Longitude>-2.843147</Longitude>
					<Latitude>53.425295</Latitude>
				</Location>
			</Place>
			<StopClassification>
				<StopType>BCS</StopType>
				<OffStreet>
					<BusAndCoach>
						<Bay>
							<TimingStatus>otherPoint</TimingStatus>
						</Bay>
					</BusAndCoach>
				</OffStreet>
			</StopClassification>
			<AdministrativeAreaRef>000</AdministrativeAreaRef>
			<Notes>Nyland Road</Notes>
		</StopPoint>
		<StopPoint CreationDateTime="2016-10-31T00:00:00">
			<AtcoCode>2800S44005A</AtcoCode>
			<Descriptor>
				<CommonName>Churchdown Grove</CommonName>
			</Descriptor>
			<Place>
				<NptgLocalityRef>E0029682</NptgLocalityRef>
				<Location>
					<Longitude>-2.882483</Longitude>
					<Latitude>53.419348</Latitude>
				</Location>
			</Place>
			<StopClassification>
				<StopType>BCS</StopType>
				<OffStreet>
					<BusAndCoach>
						<Bay>
							<TimingStatus>otherPoint</TimingStatus>
						</Bay>
					</BusAndCoach>
				</OffStreet>
			</StopClassification>
			<AdministrativeAreaRef>000</AdministrativeAreaRef>
			<Notes>Churchdown Grove</Notes>
		</StopPoint>
		<StopPoint CreationDateTime="2018-09-20T00:00:00">
			<AtcoCode>2800S44009A</AtcoCode>
			<Descriptor>
				<CommonName>Fairclough Road</CommonName>
			</Descriptor>
			<Place>
				<NptgLocalityRef>E0029954</NptgLocalityRef>
				<Location>
					<Longitude>-2.853828</Longitude>
					<Latitude>53.423565</Latitude>
				</Location>
			</Place>
			<StopClassification>
				<StopType>BCS</StopType>
				<OffStreet>
					<BusAndCoach>
						<Bay>
							<TimingStatus>otherPoint</TimingStatus>
						</Bay>
					</BusAndCoach>
				</OffStreet>
			</StopClassification>
			<AdministrativeAreaRef>000</AdministrativeAreaRef>
			<Notes>Fairclough Road</Notes>
		</StopPoint>
		<StopPoint CreationDateTime="2016-10-31T00:00:00">
			<AtcoCode>2800S44007B</AtcoCode>
			<Descriptor>
				<CommonName>Ashover Avenue</CommonName>
			</Descriptor>
			<Place>
				<NptgLocalityRef>E0029682</NptgLocalityRef>
				<Location>
					<Longitude>-2.868946</Longitude>
					<Latitude>53.420328</Latitude>
				</Location>
			</Place>
			<StopClassification>
				<StopType>BCS</StopType>
				<OffStreet>
					<BusAndCoach>
						<Bay>
							<TimingStatus>otherPoint</TimingStatus>
						</Bay>
					</BusAndCoach>
				</OffStreet>
			</StopClassification>
			<AdministrativeAreaRef>000</AdministrativeAreaRef>
			<Notes>Ashover Avenue</Notes>
		</StopPoint>
		<StopPoint CreationDateTime="2017-02-07T00:00:00">
			<AtcoCode>2800S44049A</AtcoCode>
			<Descriptor>
				<CommonName>Westmorland Road</CommonName>
			</Descriptor>
			<Place>
				<NptgLocalityRef>E0052681</NptgLocalityRef>
				<Location>
					<Longitude>-2.841163</Longitude>
					<Latitude>53.410172</Latitude>
				</Location>
			</Place>
			<StopClassification>
				<StopType>BCS</StopType>
				<OffStreet>
					<BusAndCoach>
						<Bay>
							<TimingStatus>otherPoint</TimingStatus>
						</Bay>
					</BusAndCoach>
				</OffStreet>
			</StopClassification>
			<AdministrativeAreaRef>000</AdministrativeAreaRef>
			<Notes>Westmorland Road</Notes>
		</StopPoint>
		<StopPoint CreationDateTime="2020-10-06T00:00:00">
			<AtcoCode>2800S44021A</AtcoCode>
			<Descriptor>
				<CommonName>Wastle Bridge Road</CommonName>
			</Descriptor>
			<Place>
				<NptgLocalityRef>E0029787</NptgLocalityRef>
				<Location>
					<Longitude>-2.837351</Longitude>
					<Latitude>53.423664</Latitude>
				</Location>
			</Place>
			<StopClassification>
				<StopType>BCS</StopType>
				<OffStreet>
					<BusAndCoach>
						<Bay>
							<TimingStatus>otherPoint</TimingStatus>
						</Bay>
					</BusAndCoach>
				</OffStreet>
			</StopClassification>
			<AdministrativeAreaRef>000</AdministrativeAreaRef>
			<Notes>Wastle Bridge Road</Notes>
		</StopPoint>
		<StopPoint CreationDateTime="2017-12-22T00:00:00">
			<AtcoCode>2800S44039B</AtcoCode>
			<Descriptor>
				<CommonName>Stanley Road</CommonName>
			</Descriptor>
			<Place>
				<NptgLocalityRef>E0029867</NptgLocalityRef>
				<Location>
					<Longitude>-2.843478</Longitude>
					<Latitude>53.41234</Latitude>
				</Location>
			</Place>
			<StopClassification>
				<StopType>BCS</StopType>
				<OffStreet>
					<BusAndCoach>
						<Bay>
							<TimingStatus>otherPoint</TimingStatus>
						</Bay>
					</BusAndCoach>
				</OffStreet>
			</StopClassification>
			<AdministrativeAreaRef>000</AdministrativeAreaRef>
			<Notes>Stanley Road</Notes>
		</StopPoint>
		<StopPoint CreationDateTime="2017-02-07T00:00:00">
			<AtcoCode>2800S44038A</AtcoCode>
			<Descriptor>
				<CommonName>Kingsway</CommonName>
			</Descriptor>
			<Place>
				<NptgLocalityRef>E0029867</NptgLocalityRef>
				<Location>
					<Longitude>-2.847375</Longitude>
					<Latitude>53.41313</Latitude>
				</Location>
			</Place>
			<StopClassification>
				<StopType>BCS</StopType>
				<OffStreet>
					<BusAndCoach>
						<Bay>
							<TimingStatus>otherPoint</TimingStatus>
						</Bay>
					</BusAndCoach>
				</OffStreet>
			</StopClassification>
			<AdministrativeAreaRef>000</AdministrativeAreaRef>
			<Notes>Kingsway</Notes>
		</StopPoint>
		<StopPoint CreationDateTime="2020-01-13T00:00:00">
			<AtcoCode>2800S51025B</AtcoCode>
			<Descriptor>
				<CommonName>Hurst Park Drive</CommonName>
			</Descriptor>
			<Place>
				<NptgLocalityRef>E0052681</NptgLocalityRef>
				<Location>
					<Longitude>-2.826148</Longitude>
					<Latitude>53.415508</Latitude>
				</Location>
			</Place>
			<StopClassification>
				<StopType>BCS</StopType>
				<OffStreet>
					<BusAndCoach>
						<Bay>
							<TimingStatus>otherPoint</TimingStatus>
						</Bay>
					</BusAndCoach>
				</OffStreet>
			</StopClassification>
			<AdministrativeAreaRef>000</AdministrativeAreaRef>
			<Notes>Hurst Park Drive</Notes>
		</StopPoint>
		<StopPoint CreationDateTime="2017-02-15T00:00:00">
			<AtcoCode>2800S51023B</AtcoCode>
			<Descriptor>
				<CommonName>Longview Drive</CommonName>
			</Descriptor>
			<Place>
				<NptgLocalityRef>E0029753</NptgLocalityRef>
				<Location>
					<Longitude>-2.82194</Longitude>
					<Latitude>53.411897</Latitude>
				</Location>
			</Place>
			<StopClassification>
				<StopType>BCS</StopType>
				<OffStreet>
					<BusAndCoach>
						<Bay>
							<TimingStatus>otherPoint</TimingStatus>
						</Bay>
					</BusAndCoach>
				</OffStreet>
			</StopClassification>
			<AdministrativeAreaRef>000</AdministrativeAreaRef>
			<Notes>Longview Drive</Notes>
		</StopPoint>
		<StopPoint CreationDateTime="2017-02-16T00:00:00">
			<AtcoCode>2800S51026B</AtcoCode>
			<Descriptor>
				<CommonName>Edenfield Crescent</CommonName>
			</Descriptor>
			<Place>
				<NptgLocalityRef>E0052681</NptgLocalityRef>
				<Location>
					<Longitude>-2.830102</Longitude>
					<Latitude>53.417683</Latitude>
				</Location>
			</Place>
			<StopClassification>
				<StopType>BCS</StopType>
				<OffStreet>
					<BusAndCoach>
						<Bay>
							<TimingStatus>otherPoint</TimingStatus>
						</Bay>
					</BusAndCoach>
				</OffStreet>
			</StopClassification>
			<AdministrativeAreaRef>000</AdministrativeAreaRef>
			<Notes>Edenfield Crescent</Notes>
		</StopPoint>
		<StopPoint CreationDateTime="2017-02-15T00:00:00">
			<AtcoCode>2800S51021A</AtcoCode>
			<Descriptor>
				<CommonName>St Gabriels Avenue</CommonName>
			</Descriptor>
			<Place>
				<NptgLocalityRef>E0029753</NptgLocalityRef>
				<Location>
					<Longitude>-2.825689</Longitude>
					<Latitude>53.411242</Latitude>
				</Location>
			</Place>
			<StopClassification>
				<StopType>BCS</StopType>
				<OffStreet>
					<BusAndCoach>
						<Bay>
							<TimingStatus>otherPoint</TimingStatus>
						</Bay>
					</BusAndCoach>
				</OffStreet>
			</StopClassification>
			<AdministrativeAreaRef>000</AdministrativeAreaRef>
			<Notes>St Gabriels Avenue</Notes>
		</StopPoint>
		<StopPoint CreationDateTime="2017-08-22T00:00:00">
			<AtcoCode>2800S51018B</AtcoCode>
			<Descriptor>
				<CommonName>Huyton Hey Road</CommonName>
			</Descriptor>
			<Place>
				<NptgLocalityRef>E0052681</NptgLocalityRef>
				<Location>
					<Longitude>-2.8352</Longitude>
					<Latitude>53.410654</Latitude>
				</Location>
			</Place>
			<StopClassification>
				<StopType>BCS</StopType>
				<OffStreet>
					<BusAndCoach>
						<Bay>
							<TimingStatus>otherPoint</TimingStatus>
						</Bay>
					</BusAndCoach>
				</OffStreet>
			</StopClassification>
			<AdministrativeAreaRef>000</AdministrativeAreaRef>
			<Notes>Huyton Hey Road</Notes>
		</StopPoint>
		<StopPoint CreationDateTime="2017-02-15T00:00:00">
			<AtcoCode>2800S51022B</AtcoCode>
			<Descriptor>
				<CommonName>Hillcrest Avenue</CommonName>
			</Descriptor>
			<Place>
				<NptgLocalityRef>E0029753</NptgLocalityRef>
				<Location>
					<Longitude>-2.823464</Longitude>
					<Latitude>53.411338</Latitude>
				</Location>
			</Place>
			<StopClassification>
				<StopType>BCS</StopType>
				<OffStreet>
					<BusAndCoach>
						<Bay>
							<TimingStatus>otherPoint</TimingStatus>
						</Bay>
					</BusAndCoach>
				</OffStreet>
			</StopClassification>
			<AdministrativeAreaRef>000</AdministrativeAreaRef>
			<Notes>Hillcrest Avenue</Notes>
		</StopPoint>
		<StopPoint CreationDateTime="2017-08-22T00:00:00">
			<AtcoCode>2800S51019B</AtcoCode>
			<Descriptor>
				<CommonName>Hey Park</CommonName>
			</Descriptor>
			<Place>
				<NptgLocalityRef>E0052681</NptgLocalityRef>
				<Location>
					<Longitude>-2.832657</Longitude>
					<Latitude>53.411409</Latitude>
				</Location>
			</Place>
			<StopClassification>
				<StopType>BCS</StopType>
				<OffStreet>
					<BusAndCoach>
						<Bay>
							<TimingStatus>otherPoint</TimingStatus>
						</Bay>
					</BusAndCoach>
				</OffStreet>
			</StopClassification>
			<AdministrativeAreaRef>000</AdministrativeAreaRef>
			<Notes>Hey Park</Notes>
		</StopPoint>
		<StopPoint CreationDateTime="2017-02-15T00:00:00">
			<AtcoCode>2800S51020B</AtcoCode>
			<Descriptor>
				<CommonName>Attlee Road</CommonName>
			</Descriptor>
			<Place>
				<NptgLocalityRef>E0029753</NptgLocalityRef>
				<Location>
					<Longitude>-2.82925</Longitude>
					<Latitude>53.41181</Latitude>
				</Location>
			</Place>
			<StopClassification>
				<StopType>BCS</StopType>
				<OffStreet>
					<BusAndCoach>
						<Bay>
							<TimingStatus>otherPoint</TimingStatus>
						</Bay>
					</BusAndCoach>
				</OffStreet>
			</StopClassification>
			<AdministrativeAreaRef>000</AdministrativeAreaRef>
			<Notes>Attlee Road</Notes>
		</StopPoint>
		<StopPoint CreationDateTime="2016-11-03T00:00:00">
			<AtcoCode>2800S41033B</AtcoCode>
			<Descriptor>
				<CommonName>Belfast Road</CommonName>
			</Descriptor>
			<Place>
				<NptgLocalityRef>E0029834</NptgLocalityRef>
				<Location>
					<Longitude>-2.910532</Longitude>
					<Latitude>53.413789</Latitude>
				</Location>
			</Place>
			<StopClassification>
				<StopType>BCS</StopType>
				<OffStreet>
					<BusAndCoach>
						<Bay>
							<TimingStatus>otherPoint</TimingStatus>
						</Bay>
					</BusAndCoach>
				</OffStreet>
			</StopClassification>
			<AdministrativeAreaRef>000</AdministrativeAreaRef>
			<Notes>Belfast Road</Notes>
		</StopPoint>
		<StopPoint CreationDateTime="2016-11-03T00:00:00">
			<AtcoCode>2800S41032B</AtcoCode>
			<Descriptor>
				<CommonName>Ashton Street</CommonName>
			</Descriptor>
			<Place>
				<NptgLocalityRef>E0029834</NptgLocalityRef>
				<Location>
					<Longitude>-2.9176</Longitude>
					<Latitude>53.415011</Latitude>
				</Location>
			</Place>
			<StopClassification>
				<StopType>BCS</StopType>
				<OffStreet>
					<BusAndCoach>
						<Bay>
							<TimingStatus>otherPoint</TimingStatus>
						</Bay>
					</BusAndCoach>
				</OffStreet>
			</StopClassification>
			<AdministrativeAreaRef>000</AdministrativeAreaRef>
			<Notes>Ashton Street</Notes>
		</StopPoint>
		<StopPoint CreationDateTime="2016-11-03T00:00:00">
			<AtcoCode>2800S41032A</AtcoCode>
			<Descriptor>
				<CommonName>Bell Street</CommonName>
			</Descriptor>
			<Place>
				<NptgLocalityRef>E0029834</NptgLocalityRef>
				<Location>
					<Longitude>-2.916746</Longitude>
					<Latitude>53.414487</Latitude>
				</Location>
			</Place>
			<StopClassification>
				<StopType>BCS</StopType>
				<OffStreet>
					<BusAndCoach>
						<Bay>
							<TimingStatus>otherPoint</TimingStatus>
						</Bay>
					</BusAndCoach>
				</OffStreet>
			</StopClassification>
			<AdministrativeAreaRef>000</AdministrativeAreaRef>
			<Notes>Bell Street</Notes>
		</StopPoint>
		<StopPoint CreationDateTime="2019-11-29T00:00:00">
			<AtcoCode>2800S41031E</AtcoCode>
			<Descriptor>
				<CommonName>Swan Street</CommonName>
			</Descriptor>
			<Place>
				<NptgLocalityRef>E0029834</NptgLocalityRef>
				<Location>
					<Longitude>-2.920512</Longitude>
					<Latitude>53.415411</Latitude>
				</Location>
			</Place>
			<StopClassification>
				<StopType>BCS</StopType>
				<OffStreet>
					<BusAndCoach>
						<Bay>
							<TimingStatus>otherPoint</TimingStatus>
						</Bay>
					</BusAndCoach>
				</OffStreet>
			</StopClassification>
			<AdministrativeAreaRef>000</AdministrativeAreaRef>
			<Notes>Swan Street</Notes>
		</StopPoint>
		<StopPoint CreationDateTime="2013-10-16T00:00:00">
			<AtcoCode>2800S41028A</AtcoCode>
			<Descriptor>
				<CommonName>Holland Street</CommonName>
			</Descriptor>
			<Place>
				<NptgLocalityRef>E0029695</NptgLocalityRef>
				<Location>
					<Longitude>-2.935027</Longitude>
					<Latitude>53.413851</Latitude>
				</Location>
			</Place>
			<StopClassification>
				<StopType>BCS</StopType>
				<OffStreet>
					<BusAndCoach>
						<Bay>
							<TimingStatus>otherPoint</TimingStatus>
						</Bay>
					</BusAndCoach>
				</OffStreet>
			</StopClassification>
			<AdministrativeAreaRef>000</AdministrativeAreaRef>
			<Notes>Holland Street</Notes>
		</StopPoint>
		<StopPoint CreationDateTime="2016-11-01T00:00:00">
			<AtcoCode>2800S41027B</AtcoCode>
			<Descriptor>
				<CommonName>Onslow Road</CommonName>
			</Descriptor>
			<Place>
				<NptgLocalityRef>E0029695</NptgLocalityRef>
				<Location>
					<Longitude>-2.941327</Longitude>
					<Latitude>53.412957</Latitude>
				</Location>
			</Place>
			<StopClassification>
				<StopType>BCS</StopType>
				<OffStreet>
					<BusAndCoach>
						<Bay>
							<TimingStatus>otherPoint</TimingStatus>
						</Bay>
					</BusAndCoach>
				</OffStreet>
			</StopClassification>
			<AdministrativeAreaRef>000</AdministrativeAreaRef>
			<Notes>Onslow Road</Notes>
		</StopPoint>
		<StopPoint CreationDateTime="2019-12-12T00:00:00">
			<AtcoCode>2800S41027A</AtcoCode>
			<Descriptor>
				<CommonName>Lilley Road</CommonName>
			</Descriptor>
			<Place>
				<NptgLocalityRef>E0029763</NptgLocalityRef>
				<Location>
					<Longitude>-2.939133</Longitude>
					<Latitude>53.4131</Latitude>
				</Location>
			</Place>
			<StopClassification>
				<StopType>BCS</StopType>
				<OffStreet>
					<BusAndCoach>
						<Bay>
							<TimingStatus>otherPoint</TimingStatus>
						</Bay>
					</BusAndCoach>
				</OffStreet>
			</StopClassification>
			<AdministrativeAreaRef>000</AdministrativeAreaRef>
			<Notes>Lilley Road</Notes>
		</StopPoint>
		<StopPoint CreationDateTime="2016-11-01T00:00:00">
			<AtcoCode>2800S41026D</AtcoCode>
			<Descriptor>
				<CommonName>Romer Road</CommonName>
			</Descriptor>
			<Place>
				<NptgLocalityRef>E0029695</NptgLocalityRef>
				<Location>
					<Longitude>-2.945659</Longitude>
					<Latitude>53.412239</Latitude>
				</Location>
			</Place>
			<StopClassification>
				<StopType>BCS</StopType>
				<OffStreet>
					<BusAndCoach>
						<Bay>
							<TimingStatus>otherPoint</TimingStatus>
						</Bay>
					</BusAndCoach>
				</OffStreet>
			</StopClassification>
			<AdministrativeAreaRef>000</AdministrativeAreaRef>
			<Notes>Romer Road</Notes>
		</StopPoint>
		<StopPoint CreationDateTime="2016-11-01T00:00:00">
			<AtcoCode>2800S41026B</AtcoCode>
			<Descriptor>
				<CommonName>Kelso Road</CommonName>
			</Descriptor>
			<Place>
				<NptgLocalityRef>E0029695</NptgLocalityRef>
				<Location>
					<Longitude>-2.943554</Longitude>
					<Latitude>53.412328</Latitude>
				</Location>
			</Place>
			<StopClassification>
				<StopType>BCS</StopType>
				<OffStreet>
					<BusAndCoach>
						<Bay>
							<TimingStatus>otherPoint</TimingStatus>
						</Bay>
					</BusAndCoach>
				</OffStreet>
			</StopClassification>
			<AdministrativeAreaRef>000</AdministrativeAreaRef>
			<Notes>Kelso Road</Notes>
		</StopPoint>
		<StopPoint CreationDateTime="2019-11-29T00:00:00">
			<AtcoCode>2800S41031B</AtcoCode>
			<Descriptor>
				<CommonName>Bolan Street</CommonName>
			</Descriptor>
			<Place>
				<NptgLocalityRef>E0029890</NptgLocalityRef>
				<Location>
					<Longitude>-2.920093</Longitude>
					<Latitude>53.416223</Latitude>
				</Location>
			</Place>
			<StopClassification>
				<StopType>BCS</StopType>
				<OffStreet>
					<BusAndCoach>
						<Bay>
							<TimingStatus>otherPoint</TimingStatus>
						</Bay>
					</BusAndCoach>
				</OffStreet>
			</StopClassification>
			<AdministrativeAreaRef>000</AdministrativeAreaRef>
			<Notes>Bolan Street</Notes>
		</StopPoint>
		<StopPoint CreationDateTime="2016-11-03T00:00:00">
			<AtcoCode>2800S41031A</AtcoCode>
			<Descriptor>
				<CommonName>Herrick Street</CommonName>
			</Descriptor>
			<Place>
				<NptgLocalityRef>E0029834</NptgLocalityRef>
				<Location>
					<Longitude>-2.921019</Longitude>
					<Latitude>53.415191</Latitude>
				</Location>
			</Place>
			<StopClassification>
				<StopType>BCS</StopType>
				<OffStreet>
					<BusAndCoach>
						<Bay>
							<TimingStatus>otherPoint</TimingStatus>
						</Bay>
					</BusAndCoach>
				</OffStreet>
			</StopClassification>
			<AdministrativeAreaRef>000</AdministrativeAreaRef>
			<Notes>Herrick Street</Notes>
		</StopPoint>
		<StopPoint CreationDateTime="2016-11-01T00:00:00">
			<AtcoCode>2800S41030B</AtcoCode>
			<Descriptor>
				<CommonName>Newton Road</CommonName>
			</Descriptor>
			<Place>
				<NptgLocalityRef>E0029834</NptgLocalityRef>
				<Location>
					<Longitude>-2.927677</Longitude>
					<Latitude>53.414834</Latitude>
				</Location>
			</Place>
			<StopClassification>
				<StopType>BCS</StopType>
				<OffStreet>
					<BusAndCoach>
						<Bay>
							<TimingStatus>otherPoint</TimingStatus>
						</Bay>
					</BusAndCoach>
				</OffStreet>
			</StopClassification>
			<AdministrativeAreaRef>000</AdministrativeAreaRef>
			<Notes>Newton Road</Notes>
		</StopPoint>
		<StopPoint CreationDateTime="2016-11-01T00:00:00">
			<AtcoCode>2800S41030A</AtcoCode>
			<Descriptor>
				<CommonName>Endsleigh Road</CommonName>
			</Descriptor>
			<Place>
				<NptgLocalityRef>E0029834</NptgLocalityRef>
				<Location>
					<Longitude>-2.927732</Longitude>
					<Latitude>53.414609</Latitude>
				</Location>
			</Place>
			<StopClassification>
				<StopType>BCS</StopType>
				<OffStreet>
					<BusAndCoach>
						<Bay>
							<TimingStatus>otherPoint</TimingStatus>
						</Bay>
					</BusAndCoach>
				</OffStreet>
			</StopClassification>
			<AdministrativeAreaRef>000</AdministrativeAreaRef>
			<Notes>Endsleigh Road</Notes>
		</StopPoint>
		<StopPoint CreationDateTime="2016-11-01T00:00:00">
			<AtcoCode>2800S41029A</AtcoCode>
			<Descriptor>
				<CommonName>Prescot Drive</CommonName>
			</Descriptor>
			<Place>
				<NptgLocalityRef>E0029695</NptgLocalityRef>
				<Location>
					<Longitude>-2.931639</Longitude>
					<Latitude>53.414417</Latitude>
				</Location>
			</Place>
			<StopClassification>
				<StopType>BCS</StopType>
				<OffStreet>
					<BusAndCoach>
						<Bay>
							<TimingStatus>otherPoint</TimingStatus>
						</Bay>
					</BusAndCoach>
				</OffStreet>
			</StopClassification>
			<AdministrativeAreaRef>000</AdministrativeAreaRef>
			<Notes>Prescot Drive</Notes>
		</StopPoint>
		<StopPoint CreationDateTime="2016-11-01T00:00:00">
			<AtcoCode>2800S41029B</AtcoCode>
			<Descriptor>
				<CommonName>Prescot Drive</CommonName>
			</Descriptor>
			<Place>
				<NptgLocalityRef>E0029695</NptgLocalityRef>
				<Location>
					<Longitude>-2.93111</Longitude>
					<Latitude>53.414286</Latitude>
				</Location>
			</Place>
			<StopClassification>
				<StopType>BCS</StopType>
				<OffStreet>
					<BusAndCoach>
						<Bay>
							<TimingStatus>otherPoint</TimingStatus>
						</Bay>
					</BusAndCoach>
				</OffStreet>
			</StopClassification>
			<AdministrativeAreaRef>000</AdministrativeAreaRef>
			<Notes>Prescot Drive</Notes>
		</StopPoint>
		<StopPoint CreationDateTime="2023-03-28T00:00:00">
			<AtcoCode>2800S41028B</AtcoCode>
			<Descriptor>
				<CommonName>Holland Street</CommonName>
			</Descriptor>
			<Place>
				<NptgLocalityRef>E0029763</NptgLocalityRef>
				<Location>
					<Longitude>-2.935272</Longitude>
					<Latitude>53.41402</Latitude>
				</Location>
			</Place>
			<StopClassification>
				<StopType>BCS</StopType>
				<OffStreet>
					<BusAndCoach>
						<Bay>
							<TimingStatus>otherPoint</TimingStatus>
						</Bay>
					</BusAndCoach>
				</OffStreet>
			</StopClassification>
			<AdministrativeAreaRef>000</AdministrativeAreaRef>
			<Notes>Holland Street</Notes>
		</StopPoint>
		<StopPoint CreationDateTime="2016-10-31T00:00:00">
			<AtcoCode>2800S41023B</AtcoCode>
			<Descriptor>
				<CommonName>Low Hill</CommonName>
			</Descriptor>
			<Place>
				<NptgLocalityRef>E0029763</NptgLocalityRef>
				<Location>
					<Longitude>-2.960393</Longitude>
					<Latitude>53.411151</Latitude>
				</Location>
			</Place>
			<StopClassification>
				<StopType>BCS</StopType>
				<OffStreet>
					<BusAndCoach>
						<Bay>
							<TimingStatus>otherPoint</TimingStatus>
						</Bay>
					</BusAndCoach>
				</OffStreet>
			</StopClassification>
			<AdministrativeAreaRef>000</AdministrativeAreaRef>
			<Notes>Low Hill</Notes>
		</StopPoint>
		<StopPoint CreationDateTime="2016-10-31T00:00:00">
			<AtcoCode>2800S41023C</AtcoCode>
			<Descriptor>
				<CommonName>Guelph Place</CommonName>
			</Descriptor>
			<Place>
				<NptgLocalityRef>E0029763</NptgLocalityRef>
				<Location>
					<Longitude>-2.959624</Longitude>
					<Latitude>53.411094</Latitude>
				</Location>
			</Place>
			<StopClassification>
				<StopType>BCS</StopType>
				<OffStreet>
					<BusAndCoach>
						<Bay>
							<TimingStatus>otherPoint</TimingStatus>
						</Bay>
					</BusAndCoach>
				</OffStreet>
			</StopClassification>
			<AdministrativeAreaRef>000</AdministrativeAreaRef>
			<Notes>Guelph Place</Notes>
		</StopPoint>
		<StopPoint CreationDateTime="2016-11-01T00:00:00">
			<AtcoCode>2800S41025B</AtcoCode>
			<Descriptor>
				<CommonName>Grantham Street</CommonName>
			</Descriptor>
			<Place>
				<NptgLocalityRef>E0029763</NptgLocalityRef>
				<Location>
					<Longitude>-2.949163</Longitude>
					<Latitude>53.412193</Latitude>
				</Location>
			</Place>
			<StopClassification>
				<StopType>BCS</StopType>
				<OffStreet>
					<BusAndCoach>
						<Bay>
							<TimingStatus>otherPoint</TimingStatus>
						</Bay>
					</BusAndCoach>
				</OffStreet>
			</StopClassification>
			<AdministrativeAreaRef>000</AdministrativeAreaRef>
			<Notes>Grantham Street</Notes>
		</StopPoint>
		<StopPoint CreationDateTime="2016-10-31T00:00:00">
			<AtcoCode>2800S41024B</AtcoCode>
			<Descriptor>
				<CommonName>Leopold Road</CommonName>
			</Descriptor>
			<Place>
				<NptgLocalityRef>E0029763</NptgLocalityRef>
				<Location>
					<Longitude>-2.955114</Longitude>
					<Latitude>53.411885</Latitude>
				</Location>
			</Place>
			<StopClassification>
				<StopType>BCS</StopType>
				<OffStreet>
					<BusAndCoach>
						<Bay>
							<TimingStatus>otherPoint</TimingStatus>
						</Bay>
					</BusAndCoach>
				</OffStreet>
			</StopClassification>
			<AdministrativeAreaRef>000</AdministrativeAreaRef>
			<Notes>Leopold Road</Notes>
		</StopPoint>
		<StopPoint CreationDateTime="2016-10-31T00:00:00">
			<AtcoCode>2800S41024A</AtcoCode>
			<Descriptor>
				<CommonName>Gwenfron Road</CommonName>
			</Descriptor>
			<Place>
				<NptgLocalityRef>E0029763</NptgLocalityRef>
				<Location>
					<Longitude>-2.952839</Longitude>
					<Latitude>53.411769</Latitude>
				</Location>
			</Place>
			<StopClassification>
				<StopType>BCS</StopType>
				<OffStreet>
					<BusAndCoach>
						<Bay>
							<TimingStatus>otherPoint</TimingStatus>
						</Bay>
					</BusAndCoach>
				</OffStreet>
			</StopClassification>
			<AdministrativeAreaRef>000</AdministrativeAreaRef>
			<Notes>Gwenfron Road</Notes>
		</StopPoint>
		<StopPoint CreationDateTime="2017-05-11T00:00:00">
			<AtcoCode>2800S42023B</AtcoCode>
			<Descriptor>
				<CommonName>Queen Square Bus Station</CommonName>
			</Descriptor>
			<Place>
				<NptgLocalityRef>E0057850</NptgLocalityRef>
				<Location>
					<Longitude>-2.983508</Longitude>
					<Latitude>53.407565</Latitude>
				</Location>
			</Place>
			<StopClassification>
				<StopType>BCS</StopType>
				<OffStreet>
					<BusAndCoach>
						<Bay>
							<TimingStatus>otherPoint</TimingStatus>
						</Bay>
					</BusAndCoach>
				</OffStreet>
			</StopClassification>
			<AdministrativeAreaRef>000</AdministrativeAreaRef>
			<Notes>Queen Square Bus Station</Notes>
		</StopPoint>
		<StopPoint CreationDateTime="2016-12-02T00:00:00">
			<AtcoCode>2800S42023J</AtcoCode>
			<Descriptor>
				<CommonName>Queen Square Bus Station</CommonName>
			</Descriptor>
			<Place>
				<NptgLocalityRef>E0057850</NptgLocalityRef>
				<Location>
					<Longitude>-2.981923</Longitude>
					<Latitude>53.407326</Latitude>
				</Location>
			</Place>
			<StopClassification>
				<StopType>BCS</StopType>
				<OffStreet>
					<BusAndCoach>
						<Bay>
							<TimingStatus>otherPoint</TimingStatus>
						</Bay>
					</BusAndCoach>
				</OffStreet>
			</StopClassification>
			<AdministrativeAreaRef>000</AdministrativeAreaRef>
			<Notes>Queen Square Bus Station</Notes>
		</StopPoint>
		<StopPoint CreationDateTime="2016-11-17T00:00:00">
			<AtcoCode>2800S41142A</AtcoCode>
			<Descriptor>
				<CommonName>Cheadle Avenue</CommonName>
			</Descriptor>
			<Place>
				<NptgLocalityRef>E0029834</NptgLocalityRef>
				<Location>
					<Longitude>-2.922902</Longitude>
					<Latitude>53.415312</Latitude>
				</Location>
			</Place>
			<StopClassification>
				<StopType>BCS</StopType>
				<OffStreet>
					<BusAndCoach>
						<Bay>
							<TimingStatus>otherPoint</TimingStatus>
						</Bay>
					</BusAndCoach>
				</OffStreet>
			</StopClassification>
			<AdministrativeAreaRef>000</AdministrativeAreaRef>
			<Notes>Cheadle Avenue</Notes>
		</StopPoint>
		<StopPoint CreationDateTime="2016-11-01T00:00:00">
			<AtcoCode>2800S41025A</AtcoCode>
			<Descriptor>
				<CommonName>Hawkins Street</CommonName>
			</Descriptor>
			<Place>
				<NptgLocalityRef>E0029763</NptgLocalityRef>
				<Location>
					<Longitude>-2.948828</Longitude>
					<Latitude>53.412007</Latitude>
				</Location>
			</Place>
			<StopClassification>
				<StopType>BCS</StopType>
				<OffStreet>
					<BusAndCoach>
						<Bay>
							<TimingStatus>otherPoint</TimingStatus>
						</Bay>
					</BusAndCoach>
				</OffStreet>
			</StopClassification>
			<AdministrativeAreaRef>000</AdministrativeAreaRef>
			<Notes>Hawkins Street</Notes>
		</StopPoint>
		<StopPoint CreationDateTime="2017-02-06T00:00:00">
			<AtcoCode>2800S44008E</AtcoCode>
			<Descriptor>
				<CommonName>Stockbridge Lane</CommonName>
			</Descriptor>
			<Place>
				<NptgLocalityRef>E0029954</NptgLocalityRef>
				<Location>
					<Longitude>-2.859641</Longitude>
					<Latitude>53.422319</Latitude>
				</Location>
			</Place>
			<StopClassification>
				<StopType>BCS</StopType>
				<OffStreet>
					<BusAndCoach>
						<Bay>
							<TimingStatus>otherPoint</TimingStatus>
						</Bay>
					</BusAndCoach>
				</OffStreet>
			</StopClassification>
			<AdministrativeAreaRef>000</AdministrativeAreaRef>
			<Notes>Stockbridge Lane</Notes>
		</StopPoint>
		<StopPoint CreationDateTime="2016-11-03T00:00:00">
			<AtcoCode>2800S41033C</AtcoCode>
			<Descriptor>
				<CommonName>Fitzgerald Road</CommonName>
			</Descriptor>
			<Place>
				<NptgLocalityRef>E0029834</NptgLocalityRef>
				<Location>
					<Longitude>-2.912275</Longitude>
					<Latitude>53.413668</Latitude>
				</Location>
			</Place>
			<StopClassification>
				<StopType>BCS</StopType>
				<OffStreet>
					<BusAndCoach>
						<Bay>
							<TimingStatus>otherPoint</TimingStatus>
						</Bay>
					</BusAndCoach>
				</OffStreet>
			</StopClassification>
			<AdministrativeAreaRef>000</AdministrativeAreaRef>
			<Notes>Fitzgerald Road</Notes>
		</StopPoint>
		<StopPoint CreationDateTime="2022-11-09T00:00:00">
			<AtcoCode>2800S41225A</AtcoCode>
			<Descriptor>
				<CommonName>Low Hill</CommonName>
			</Descriptor>
			<Place>
				<NptgLocalityRef>E0057850</NptgLocalityRef>
				<Location>
					<Longitude>-2.964432</Longitude>
					<Latitude>53.410804</Latitude>
				</Location>
			</Place>
			<StopClassification>
				<StopType>BCS</StopType>
				<OffStreet>
					<BusAndCoach>
						<Bay>
							<TimingStatus>otherPoint</TimingStatus>
						</Bay>
					</BusAndCoach>
				</OffStreet>
			</StopClassification>
			<AdministrativeAreaRef>000</AdministrativeAreaRef>
			<Notes>Low Hill</Notes>
		</StopPoint>
		<StopPoint CreationDateTime="2019-11-28T00:00:00">
			<AtcoCode>2800S44197A</AtcoCode>
			<Descriptor>
				<CommonName>Alder Hey Hospital</CommonName>
			</Descriptor>
			<Place>
				<NptgLocalityRef>E0029769</NptgLocalityRef>
				<Location>
					<Longitude>-2.895408</Longitude>
					<Latitude>53.417885</Latitude>
				</Location>
			</Place>
			<StopClassification>
				<StopType>BCS</StopType>
				<OffStreet>
					<BusAndCoach>
						<Bay>
							<TimingStatus>otherPoint</TimingStatus>
						</Bay>
					</BusAndCoach>
				</OffStreet>
			</StopClassification>
			<AdministrativeAreaRef>000</AdministrativeAreaRef>
			<Notes>Alder Hey Hospital</Notes>
		</StopPoint>
		<StopPoint CreationDateTime="2017-02-15T00:00:00">
			<AtcoCode>2800S51024B</AtcoCode>
			<Descriptor>
				<CommonName>Hardie Road</CommonName>
			</Descriptor>
			<Place>
				<NptgLocalityRef>E0029756</NptgLocalityRef>
				<Location>
					<Longitude>-2.823595</Longitude>
					<Latitude>53.414213</Latitude>
				</Location>
			</Place>
			<StopClassification>
				<StopType>BCS</StopType>
				<OffStreet>
					<BusAndCoach>
						<Bay>
							<TimingStatus>otherPoint</TimingStatus>
						</Bay>
					</BusAndCoach>
				</OffStreet>
			</StopClassification>
			<AdministrativeAreaRef>000</AdministrativeAreaRef>
			<Notes>Hardie Road</Notes>
		</StopPoint>
	</StopPoints>
	<RouteSections>
		<RouteSection id="RS_1-9-_-y11-19-O-1">
			<RouteLink id="RL_1-9-_-y11-19-O-1-1">
				<From>
					<StopPointRef>2800S42023B</StopPointRef>
				</From>
				<To>
					<StopPointRef>2800S42057C</StopPointRef>
				</To>
				<Distance>564</Distance>
				<Direction>outbound</Direction>
				<Track>
					<Mapping>
						<Location>
							<Longitude>-2.983537</Longitude>
							<Latitude>53.407493</Latitude>
						</Location>
						<Location>
							<Longitude>-2.983416</Longitude>
							<Latitude>53.407467</Latitude>
						</Location>
						<Location>
							<Longitude>-2.982827</Longitude>
							<Latitude>53.407382</Latitude>
						</Location>
						<Location>
							<Longitude>-2.982482</Longitude>
							<Latitude>53.407411</Latitude>
						</Location>
						<Location>
							<Longitude>-2.981869</Longitude>
							<Latitude>53.407596</Latitude>
						</Location>
						<Location>
							<Longitude>-2.98117</Longitude>
							<Latitude>53.407917</Latitude>
						</Location>
						<Location>
							<Longitude>-2.98099</Longitude>
							<Latitude>53.407954</Latitude>
						</Location>
						<Location>
							<Longitude>-2.98081</Longitude>
							<Latitude>53.407956</Latitude>
						</Location>
						<Location>
							<Longitude>-2.980175</Longitude>
							<Latitude>53.407844</Latitude>
						</Location>
						<Location>
							<Longitude>-2.979543</Longitude>
							<Latitude>53.407831</Latitude>
						</Location>
						<Location>
							<Longitude>-2.979068</Longitude>
							<Latitude>53.408734</Latitude>
						</Location>
						<Location>
							<Longitude>-2.978733</Longitude>
							<Latitude>53.40924</Latitude>
						</Location>
						<Location>
							<Longitude>-2.978555</Longitude>
							<Latitude>53.409358</Latitude>
						</Location>
						<Location>
							<Longitude>-2.977472</Longitude>
							<Latitude>53.409331</Latitude>
						</Location>
						<Location>
							<Longitude>-2.977336</Longitude>
							<Latitude>53.409332</Latitude>
						</Location>
						<Location>
							<Longitude>-2.97693</Longitude>
							<Latitude>53.409318</Latitude>
						</Location>
						<Location>
							<Longitude>-2.976674</Longitude>
							<Latitude>53.40932</Latitude>
						</Location>
					</Mapping>
				</Track>
			</RouteLink>
			<RouteLink id="RL_1-9-_-y11-19-O-1-2">
				<From>
					<StopPointRef>2800S42057C</StopPointRef>
				</From>
				<To>
					<StopPointRef>2800S42015E</StopPointRef>
				</To>
				<Distance>256</Distance>
				<Direction>outbound</Direction>
				<Track>
					<Mapping>
						<Location>
							<Longitude>-2.976674</Longitude>
							<Latitude>53.40932</Latitude>
						</Location>
						<Location>
							<Longitude>-2.976343</Longitude>
							<Latitude>53.409314</Latitude>
						</Location>
						<Location>
							<Longitude>-2.975696</Longitude>
							<Latitude>53.40931</Latitude>
						</Location>
						<Location>
							<Longitude>-2.975335</Longitude>
							<Latitude>53.409304</Latitude>
						</Location>
						<Location>
							<Longitude>-2.974749</Longitude>
							<Latitude>53.409327</Latitude>
						</Location>
						<Location>
							<Longitude>-2.974598</Longitude>
							<Latitude>53.409328</Latitude>
						</Location>
						<Location>
							<Longitude>-2.974086</Longitude>
							<Latitude>53.409287</Latitude>
						</Location>
						<Location>
							<Longitude>-2.973889</Longitude>
							<Latitude>53.409217</Latitude>
						</Location>
						<Location>
							<Longitude>-2.973723</Longitude>
							<Latitude>53.4092</Latitude>
						</Location>
						<Location>
							<Longitude>-2.973285</Longitude>
							<Latitude>53.409141</Latitude>
						</Location>
						<Location>
							<Longitude>-2.973089</Longitude>
							<Latitude>53.409124</Latitude>
						</Location>
						<Location>
							<Longitude>-2.972878</Longitude>
							<Latitude>53.409099</Latitude>
						</Location>
					</Mapping>
				</Track>
			</RouteLink>
			<RouteLink id="RL_1-9-_-y11-19-O-1-3">
				<From>
					<StopPointRef>2800S42015E</StopPointRef>
				</From>
				<To>
					<StopPointRef>2800S42016B</StopPointRef>
				</To>
				<Distance>564</Distance>
				<Direction>outbound</Direction>
				<Track>
					<Mapping>
						<Location>
							<Longitude>-2.972878</Longitude>
							<Latitude>53.409099</Latitude>
						</Location>
						<Location>
							<Longitude>-2.971852</Longitude>
							<Latitude>53.408982</Latitude>
						</Location>
						<Location>
							<Longitude>-2.971295</Longitude>
							<Latitude>53.408932</Latitude>
						</Location>
						<Location>
							<Longitude>-2.970963</Longitude>
							<Latitude>53.408899</Latitude>
						</Location>
						<Location>
							<Longitude>-2.970545</Longitude>
							<Latitude>53.409028</Latitude>
						</Location>
						<Location>
							<Longitude>-2.970516</Longitude>
							<Latitude>53.409091</Latitude>
						</Location>
						<Location>
							<Longitude>-2.970563</Longitude>
							<Latitude>53.409181</Latitude>
						</Location>
						<Location>
							<Longitude>-2.970689</Longitude>
							<Latitude>53.409414</Latitude>
						</Location>
						<Location>
							<Longitude>-2.970782</Longitude>
							<Latitude>53.409566</Latitude>
						</Location>
						<Location>
							<Longitude>-2.970816</Longitude>
							<Latitude>53.409709</Latitude>
						</Location>
						<Location>
							<Longitude>-2.970308</Longitude>
							<Latitude>53.409857</Latitude>
						</Location>
						<Location>
							<Longitude>-2.969739</Longitude>
							<Latitude>53.409979</Latitude>
						</Location>
						<Location>
							<Longitude>-2.96929</Longitude>
							<Latitude>53.410072</Latitude>
						</Location>
						<Location>
							<Longitude>-2.9692</Longitude>
							<Latitude>53.410091</Latitude>
						</Location>
						<Location>
							<Longitude>-2.968197</Longitude>
							<Latitude>53.410306</Latitude>
						</Location>
						<Location>
							<Longitude>-2.967763</Longitude>
							<Latitude>53.410399</Latitude>
						</Location>
						<Location>
							<Longitude>-2.966697</Longitude>
							<Latitude>53.410507</Latitude>
						</Location>
						<Location>
							<Longitude>-2.966171</Longitude>
							<Latitude>53.410547</Latitude>
						</Location>
					</Mapping>
				</Track>
			</RouteLink>
			<RouteLink id="RL_1-9-_-y11-19-O-1-4">
				<From>
					<StopPointRef>2800S42016B</StopPointRef>
				</From>
				<To>
					<StopPointRef>2800S41225A</StopPointRef>
				</To>
				<Distance>118</Distance>
				<Direction>outbound</Direction>
				<Track>
					<Mapping>
						<Location>
							<Longitude>-2.966171</Longitude>
							<Latitude>53.410547</Latitude>
						</Location>
						<Location>
							<Longitude>-2.965796</Longitude>
							<Latitude>53.410577</Latitude>
						</Location>
						<Location>
							<Longitude>-2.965255</Longitude>
							<Latitude>53.410617</Latitude>
						</Location>
						<Location>
							<Longitude>-2.965015</Longitude>
							<Latitude>53.410637</Latitude>
						</Location>
						<Location>
							<Longitude>-2.964805</Longitude>
							<Latitude>53.410657</Latitude>
						</Location>
						<Location>
							<Longitude>-2.964414</Longitude>
							<Latitude>53.410687</Latitude>
						</Location>
					</Mapping>
				</Track>
			</RouteLink>
			<RouteLink id="RL_1-9-_-y11-19-O-1-5">
				<From>
					<StopPointRef>2800S41225A</StopPointRef>
				</From>
				<To>
					<StopPointRef>2800S41023B</StopPointRef>
				</To>
				<Distance>273</Distance>
				<Direction>outbound</Direction>
				<Track>
					<Mapping>
						<Location>
							<Longitude>-2.964414</Longitude>
							<Latitude>53.410687</Latitude>
						</Location>
						<Location>
							<Longitude>-2.961756</Longitude>
							<Latitude>53.410879</Latitude>
						</Location>
						<Location>
							<Longitude>-2.961515</Longitude>
							<Latitude>53.41089</Latitude>
						</Location>
						<Location>
							<Longitude>-2.961245</Longitude>
							<Latitude>53.410919</Latitude>
						</Location>
						<Location>
							<Longitude>-2.960361</Longitude>
							<Latitude>53.411061</Latitude>
						</Location>
					</Mapping>
				</Track>
			</RouteLink>
			<RouteLink id="RL_1-9-_-y11-19-O-1-6">
				<From>
					<StopPointRef>2800S41023B</StopPointRef>
				</From>
				<To>
					<StopPointRef>2800S41024B</StopPointRef>
				</To>
				<Distance>360</Distance>
				<Direction>outbound</Direction>
				<Track>
					<Mapping>
						<Location>
							<Longitude>-2.960361</Longitude>
							<Latitude>53.411061</Latitude>
						</Location>
						<Location>
							<Longitude>-2.958577</Longitude>
							<Latitude>53.411354</Latitude>
						</Location>
						<Location>
							<Longitude>-2.958277</Longitude>
							<Latitude>53.411401</Latitude>
						</Location>
						<Location>
							<Longitude>-2.957633</Longitude>
							<Latitude>53.411524</Latitude>
						</Location>
						<Location>
							<Longitude>-2.957003</Longitude>
							<Latitude>53.411618</Latitude>
						</Location>
						<Location>
							<Longitude>-2.956688</Longitude>
							<Latitude>53.411657</Latitude>
						</Location>
						<Location>
							<Longitude>-2.956313</Longitude>
							<Latitude>53.411696</Latitude>
						</Location>
						<Location>
							<Longitude>-2.956118</Longitude>
							<Latitude>53.411724</Latitude>
						</Location>
						<Location>
							<Longitude>-2.955938</Longitude>
							<Latitude>53.411726</Latitude>
						</Location>
						<Location>
							<Longitude>-2.955667</Longitude>
							<Latitude>53.411746</Latitude>
						</Location>
						<Location>
							<Longitude>-2.955517</Longitude>
							<Latitude>53.411756</Latitude>
						</Location>
						<Location>
							<Longitude>-2.955096</Longitude>
							<Latitude>53.411778</Latitude>
						</Location>
					</Mapping>
				</Track>
			</RouteLink>
			<RouteLink id="RL_1-9-_-y11-19-O-1-7">
				<From>
					<StopPointRef>2800S41024B</StopPointRef>
				</From>
				<To>
					<StopPointRef>2800S41025B</StopPointRef>
				</To>
				<Distance>396</Distance>
				<Direction>outbound</Direction>
				<Track>
					<Mapping>
						<Location>
							<Longitude>-2.955096</Longitude>
							<Latitude>53.411778</Latitude>
						</Location>
						<Location>
							<Longitude>-2.954991</Longitude>
							<Latitude>53.411787</Latitude>
						</Location>
						<Location>
							<Longitude>-2.954901</Longitude>
							<Latitude>53.411788</Latitude>
						</Location>
						<Location>
							<Longitude>-2.954315</Longitude>
							<Latitude>53.411802</Latitude>
						</Location>
						<Location>
							<Longitude>-2.953668</Longitude>
							<Latitude>53.411834</Latitude>
						</Location>
						<Location>
							<Longitude>-2.953052</Longitude>
							<Latitude>53.411848</Latitude>
						</Location>
						<Location>
							<Longitude>-2.952376</Longitude>
							<Latitude>53.41188</Latitude>
						</Location>
						<Location>
							<Longitude>-2.9517</Longitude>
							<Latitude>53.411931</Latitude>
						</Location>
						<Location>
							<Longitude>-2.951339</Longitude>
							<Latitude>53.41196</Latitude>
						</Location>
						<Location>
							<Longitude>-2.951039</Longitude>
							<Latitude>53.411981</Latitude>
						</Location>
						<Location>
							<Longitude>-2.950708</Longitude>
							<Latitude>53.412001</Latitude>
						</Location>
						<Location>
							<Longitude>-2.950543</Longitude>
							<Latitude>53.412012</Latitude>
						</Location>
						<Location>
							<Longitude>-2.950182</Longitude>
							<Latitude>53.412032</Latitude>
						</Location>
						<Location>
							<Longitude>-2.950047</Longitude>
							<Latitude>53.412043</Latitude>
						</Location>
						<Location>
							<Longitude>-2.949506</Longitude>
							<Latitude>53.412074</Latitude>
						</Location>
						<Location>
							<Longitude>-2.949386</Longitude>
							<Latitude>53.412084</Latitude>
						</Location>
						<Location>
							<Longitude>-2.949161</Longitude>
							<Latitude>53.412086</Latitude>
						</Location>
					</Mapping>
				</Track>
			</RouteLink>
			<RouteLink id="RL_1-9-_-y11-19-O-1-8">
				<From>
					<StopPointRef>2800S41025B</StopPointRef>
				</From>
				<To>
					<StopPointRef>2800S41026D</StopPointRef>
				</To>
				<Distance>234</Distance>
				<Direction>outbound</Direction>
				<Track>
					<Mapping>
						<Location>
							<Longitude>-2.949161</Longitude>
							<Latitude>53.412086</Latitude>
						</Location>
						<Location>
							<Longitude>-2.948845</Longitude>
							<Latitude>53.412097</Latitude>
						</Location>
						<Location>
							<Longitude>-2.948574</Longitude>
							<Latitude>53.412099</Latitude>
						</Location>
						<Location>
							<Longitude>-2.948213</Longitude>
							<Latitude>53.412102</Latitude>
						</Location>
						<Location>
							<Longitude>-2.947957</Longitude>
							<Latitude>53.412104</Latitude>
						</Location>
						<Location>
							<Longitude>-2.947566</Longitude>
							<Latitude>53.412098</Latitude>
						</Location>
						<Location>
							<Longitude>-2.94692</Longitude>
							<Latitude>53.412112</Latitude>
						</Location>
						<Location>
							<Longitude>-2.946243</Longitude>
							<Latitude>53.412118</Latitude>
						</Location>
						<Location>
							<Longitude>-2.946167</Longitude>
							<Latitude>53.412118</Latitude>
						</Location>
						<Location>
							<Longitude>-2.945642</Longitude>
							<Latitude>53.412149</Latitude>
						</Location>
					</Mapping>
				</Track>
			</RouteLink>
			<RouteLink id="RL_1-9-_-y11-19-O-1-9">
				<From>
					<StopPointRef>2800S41026D</StopPointRef>
				</From>
				<To>
					<StopPointRef>2800S41027B</StopPointRef>
				</To>
				<Distance>301</Distance>
				<Direction>outbound</Direction>
				<Track>
					<Mapping>
						<Location>
							<Longitude>-2.945642</Longitude>
							<Latitude>53.412149</Latitude>
						</Location>
						<Location>
							<Longitude>-2.945266</Longitude>
							<Latitude>53.41217</Latitude>
						</Location>
						<Location>
							<Longitude>-2.944321</Longitude>
							<Latitude>53.412286</Latitude>
						</Location>
						<Location>
							<Longitude>-2.943452</Longitude>
							<Latitude>53.412454</Latitude>
						</Location>
						<Location>
							<Longitude>-2.942897</Longitude>
							<Latitude>53.412558</Latitude>
						</Location>
						<Location>
							<Longitude>-2.942538</Longitude>
							<Latitude>53.412623</Latitude>
						</Location>
						<Location>
							<Longitude>-2.941998</Longitude>
							<Latitude>53.412718</Latitude>
						</Location>
						<Location>
							<Longitude>-2.941669</Longitude>
							<Latitude>53.412783</Latitude>
						</Location>
						<Location>
							<Longitude>-2.941279</Longitude>
							<Latitude>53.412849</Latitude>
						</Location>
					</Mapping>
				</Track>
			</RouteLink>
			<RouteLink id="RL_1-9-_-y11-19-O-1-10">
				<From>
					<StopPointRef>2800S41027B</StopPointRef>
				</From>
				<To>
					<StopPointRef>2800S41028B</StopPointRef>
				</To>
				<Distance>421</Distance>
				<Direction>outbound</Direction>
				<Track>
					<Mapping>
						<Location>
							<Longitude>-2.941279</Longitude>
							<Latitude>53.412849</Latitude>
						</Location>
						<Location>
							<Longitude>-2.941054</Longitude>
							<Latitude>53.412887</Latitude>
						</Location>
						<Location>
							<Longitude>-2.94089</Longitude>
							<Latitude>53.412933</Latitude>
						</Location>
						<Location>
							<Longitude>-2.9405</Longitude>
							<Latitude>53.412981</Latitude>
						</Location>
						<Location>
							<Longitude>-2.940155</Longitude>
							<Latitude>53.413038</Latitude>
						</Location>
						<Location>
							<Longitude>-2.940035</Longitude>
							<Latitude>53.413057</Latitude>
						</Location>
						<Location>
							<Longitude>-2.939675</Longitude>
							<Latitude>53.413122</Latitude>
						</Location>
						<Location>
							<Longitude>-2.93939</Longitude>
							<Latitude>53.41317</Latitude>
						</Location>
						<Location>
							<Longitude>-2.938386</Longitude>
							<Latitude>53.413339</Latitude>
						</Location>
						<Location>
							<Longitude>-2.937862</Longitude>
							<Latitude>53.413433</Latitude>
						</Location>
						<Location>
							<Longitude>-2.937037</Longitude>
							<Latitude>53.413566</Latitude>
						</Location>
						<Location>
							<Longitude>-2.936827</Longitude>
							<Latitude>53.413603</Latitude>
						</Location>
						<Location>
							<Longitude>-2.936048</Longitude>
							<Latitude>53.413753</Latitude>
						</Location>
						<Location>
							<Longitude>-2.935883</Longitude>
							<Latitude>53.413781</Latitude>
						</Location>
						<Location>
							<Longitude>-2.935404</Longitude>
							<Latitude>53.413866</Latitude>
						</Location>
						<Location>
							<Longitude>-2.935194</Longitude>
							<Latitude>53.413904</Latitude>
						</Location>
					</Mapping>
				</Track>
			</RouteLink>
			<RouteLink id="RL_1-9-_-y11-19-O-1-11">
				<From>
					<StopPointRef>2800S41028B</StopPointRef>
				</From>
				<To>
					<StopPointRef>2800S41029A</StopPointRef>
				</To>
				<Distance>243</Distance>
				<Direction>outbound</Direction>
				<Track>
					<Mapping>
						<Location>
							<Longitude>-2.935194</Longitude>
							<Latitude>53.413904</Latitude>
						</Location>
						<Location>
							<Longitude>-2.934714</Longitude>
							<Latitude>53.413988</Latitude>
						</Location>
						<Location>
							<Longitude>-2.933979</Longitude>
							<Latitude>53.414093</Latitude>
						</Location>
						<Location>
							<Longitude>-2.933334</Longitude>
							<Latitude>53.414161</Latitude>
						</Location>
						<Location>
							<Longitude>-2.932523</Longitude>
							<Latitude>53.414239</Latitude>
						</Location>
						<Location>
							<Longitude>-2.931607</Longitude>
							<Latitude>53.414327</Latitude>
						</Location>
					</Mapping>
				</Track>
			</RouteLink>
			<RouteLink id="RL_1-9-_-y11-19-O-1-12">
				<From>
					<StopPointRef>2800S41029A</StopPointRef>
				</From>
				<To>
					<StopPointRef>2800S41030B</StopPointRef>
				</To>
				<Distance>268</Distance>
				<Direction>outbound</Direction>
				<Track>
					<Mapping>
						<Location>
							<Longitude>-2.931607</Longitude>
							<Latitude>53.414327</Latitude>
						</Location>
						<Location>
							<Longitude>-2.931577</Longitude>
							<Latitude>53.414327</Latitude>
						</Location>
						<Location>
							<Longitude>-2.930871</Longitude>
							<Latitude>53.414378</Latitude>
						</Location>
						<Location>
							<Longitude>-2.930436</Longitude>
							<Latitude>53.414417</Latitude>
						</Location>
						<Location>
							<Longitude>-2.92997</Longitude>
							<Latitude>53.414457</Latitude>
						</Location>
						<Location>
							<Longitude>-2.92928</Longitude>
							<Latitude>53.414534</Latitude>
						</Location>
						<Location>
							<Longitude>-2.928769</Longitude>
							<Latitude>53.414583</Latitude>
						</Location>
						<Location>
							<Longitude>-2.928499</Longitude>
							<Latitude>53.414612</Latitude>
						</Location>
						<Location>
							<Longitude>-2.928049</Longitude>
							<Latitude>53.414661</Latitude>
						</Location>
						<Location>
							<Longitude>-2.927659</Longitude>
							<Latitude>53.414718</Latitude>
						</Location>
						<Location>
							<Longitude>-2.927629</Longitude>
							<Latitude>53.414727</Latitude>
						</Location>
					</Mapping>
				</Track>
			</RouteLink>
			<RouteLink id="RL_1-9-_-y11-19-O-1-13">
				<From>
					<StopPointRef>2800S41030B</StopPointRef>
				</From>
				<To>
					<StopPointRef>2800S41142A</StopPointRef>
				</To>
				<Distance>321</Distance>
				<Direction>outbound</Direction>
				<Track>
					<Mapping>
						<Location>
							<Longitude>-2.927629</Longitude>
							<Latitude>53.414727</Latitude>
						</Location>
						<Location>
							<Longitude>-2.927494</Longitude>
							<Latitude>53.414746</Latitude>
						</Location>
						<Location>
							<Longitude>-2.926925</Longitude>
							<Latitude>53.414849</Latitude>
						</Location>
						<Location>
							<Longitude>-2.92634</Longitude>
							<Latitude>53.414943</Latitude>
						</Location>
						<Location>
							<Longitude>-2.925289</Longitude>
							<Latitude>53.41506</Latitude>
						</Location>
						<Location>
							<Longitude>-2.924719</Longitude>
							<Latitude>53.415109</Latitude>
						</Location>
						<Location>
							<Longitude>-2.924523</Longitude>
							<Latitude>53.415119</Latitude>
						</Location>
						<Location>
							<Longitude>-2.923952</Longitude>
							<Latitude>53.415151</Latitude>
						</Location>
						<Location>
							<Longitude>-2.923666</Longitude>
							<Latitude>53.415162</Latitude>
						</Location>
						<Location>
							<Longitude>-2.923201</Longitude>
							<Latitude>53.415184</Latitude>
						</Location>
						<Location>
							<Longitude>-2.922885</Longitude>
							<Latitude>53.415195</Latitude>
						</Location>
					</Mapping>
				</Track>
			</RouteLink>
			<RouteLink id="RL_1-9-_-y11-19-O-1-14">
				<From>
					<StopPointRef>2800S41142A</StopPointRef>
				</From>
				<To>
					<StopPointRef>2800S41031E</StopPointRef>
				</To>
				<Distance>158</Distance>
				<Direction>outbound</Direction>
				<Track>
					<Mapping>
						<Location>
							<Longitude>-2.922885</Longitude>
							<Latitude>53.415195</Latitude>
						</Location>
						<Location>
							<Longitude>-2.922629</Longitude>
							<Latitude>53.415206</Latitude>
						</Location>
						<Location>
							<Longitude>-2.922494</Longitude>
							<Latitude>53.415207</Latitude>
						</Location>
						<Location>
							<Longitude>-2.921848</Longitude>
							<Latitude>53.415239</Latitude>
						</Location>
						<Location>
							<Longitude>-2.921442</Longitude>
							<Latitude>53.41526</Latitude>
						</Location>
						<Location>
							<Longitude>-2.921216</Longitude>
							<Latitude>53.415271</Latitude>
						</Location>
						<Location>
							<Longitude>-2.920766</Longitude>
							<Latitude>53.415301</Latitude>
						</Location>
						<Location>
							<Longitude>-2.92066</Longitude>
							<Latitude>53.415302</Latitude>
						</Location>
						<Location>
							<Longitude>-2.92051</Longitude>
							<Latitude>53.415303</Latitude>
						</Location>
					</Mapping>
				</Track>
			</RouteLink>
			<RouteLink id="RL_1-9-_-y11-19-O-1-15">
				<From>
					<StopPointRef>2800S41031E</StopPointRef>
				</From>
				<To>
					<StopPointRef>2800S41032B</StopPointRef>
				</To>
				<Distance>196</Distance>
				<Direction>outbound</Direction>
				<Track>
					<Mapping>
						<Location>
							<Longitude>-2.92051</Longitude>
							<Latitude>53.415303</Latitude>
						</Location>
						<Location>
							<Longitude>-2.919893</Longitude>
							<Latitude>53.415317</Latitude>
						</Location>
						<Location>
							<Longitude>-2.919623</Longitude>
							<Latitude>53.415319</Latitude>
						</Location>
						<Location>
							<Longitude>-2.919427</Longitude>
							<Latitude>53.415303</Latitude>
						</Location>
						<Location>
							<Longitude>-2.918143</Longitude>
							<Latitude>53.415061</Latitude>
						</Location>
						<Location>
							<Longitude>-2.918006</Longitude>
							<Latitude>53.415017</Latitude>
						</Location>
						<Location>
							<Longitude>-2.917688</Longitude>
							<Latitude>53.414911</Latitude>
						</Location>
					</Mapping>
				</Track>
			</RouteLink>
			<RouteLink id="RL_1-9-_-y11-19-O-1-16">
				<From>
					<StopPointRef>2800S41032B</StopPointRef>
				</From>
				<To>
					<StopPointRef>2800S41033C</StopPointRef>
				</To>
				<Distance>407</Distance>
				<Direction>outbound</Direction>
				<Track>
					<Mapping>
						<Location>
							<Longitude>-2.917688</Longitude>
							<Latitude>53.414911</Latitude>
						</Location>
						<Location>
							<Longitude>-2.917446</Longitude>
							<Latitude>53.414832</Latitude>
						</Location>
						<Location>
							<Longitude>-2.917097</Longitude>
							<Latitude>53.414709</Latitude>
						</Location>
						<Location>
							<Longitude>-2.916885</Longitude>
							<Latitude>53.414639</Latitude>
						</Location>
						<Location>
							<Longitude>-2.916339</Longitude>
							<Latitude>53.414454</Latitude>
						</Location>
						<Location>
							<Longitude>-2.915975</Longitude>
							<Latitude>53.414331</Latitude>
						</Location>
						<Location>
							<Longitude>-2.915793</Longitude>
							<Latitude>53.414261</Latitude>
						</Location>
						<Location>
							<Longitude>-2.914247</Longitude>
							<Latitude>53.413733</Latitude>
						</Location>
						<Location>
							<Longitude>-2.914111</Longitude>
							<Latitude>53.413689</Latitude>
						</Location>
						<Location>
							<Longitude>-2.913475</Longitude>
							<Latitude>53.413479</Latitude>
						</Location>
						<Location>
							<Longitude>-2.913384</Longitude>
							<Latitude>53.41347</Latitude>
						</Location>
						<Location>
							<Longitude>-2.913279</Longitude>
							<Latitude>53.413462</Latitude>
						</Location>
						<Location>
							<Longitude>-2.913083</Longitude>
							<Latitude>53.413446</Latitude>
						</Location>
						<Location>
							<Longitude>-2.912588</Longitude>
							<Latitude>53.413521</Latitude>
						</Location>
						<Location>
							<Longitude>-2.912228</Longitude>
							<Latitude>53.413578</Latitude>
						</Location>
					</Mapping>
				</Track>
			</RouteLink>
			<RouteLink id="RL_1-9-_-y11-19-O-1-17">
				<From>
					<StopPointRef>2800S41033C</StopPointRef>
				</From>
				<To>
					<StopPointRef>2800S44001B</StopPointRef>
				</To>
				<Distance>330</Distance>
				<Direction>outbound</Direction>
				<Track>
					<Mapping>
						<Location>
							<Longitude>-2.912228</Longitude>
							<Latitude>53.413578</Latitude>
						</Location>
						<Location>
							<Longitude>-2.912018</Longitude>
							<Latitude>53.413616</Latitude>
						</Location>
						<Location>
							<Longitude>-2.911793</Longitude>
							<Latitude>53.413662</Latitude>
						</Location>
						<Location>
							<Longitude>-2.911464</Longitude>
							<Latitude>53.413719</Latitude>
						</Location>
						<Location>
							<Longitude>-2.910939</Longitude>
							<Latitude>53.413813</Latitude>
						</Location>
						<Location>
							<Longitude>-2.910399</Longitude>
							<Latitude>53.413898</Latitude>
						</Location>
						<Location>
							<Longitude>-2.909875</Longitude>
							<Latitude>53.414009</Latitude>
						</Location>
						<Location>
							<Longitude>-2.909755</Longitude>
							<Latitude>53.414037</Latitude>
						</Location>
						<Location>
							<Longitude>-2.909367</Longitude>
							<Latitude>53.414184</Latitude>
						</Location>
						<Location>
							<Longitude>-2.908934</Longitude>
							<Latitude>53.41434</Latitude>
						</Location>
						<Location>
							<Longitude>-2.908295</Longitude>
							<Latitude>53.414678</Latitude>
						</Location>
						<Location>
							<Longitude>-2.907801</Longitude>
							<Latitude>53.414834</Latitude>
						</Location>
					</Mapping>
				</Track>
			</RouteLink>
			<RouteLink id="RL_1-9-_-y11-19-O-1-18">
				<From>
					<StopPointRef>2800S44001B</StopPointRef>
				</From>
				<To>
					<StopPointRef>2800S44002A</StopPointRef>
				</To>
				<Distance>474</Distance>
				<Direction>outbound</Direction>
				<Track>
					<Mapping>
						<Location>
							<Longitude>-2.907801</Longitude>
							<Latitude>53.414834</Latitude>
						</Location>
						<Location>
							<Longitude>-2.907652</Longitude>
							<Latitude>53.41488</Latitude>
						</Location>
						<Location>
							<Longitude>-2.906337</Longitude>
							<Latitude>53.415286</Latitude>
						</Location>
						<Location>
							<Longitude>-2.905724</Longitude>
							<Latitude>53.415488</Latitude>
						</Location>
						<Location>
							<Longitude>-2.90562</Longitude>
							<Latitude>53.415534</Latitude>
						</Location>
						<Location>
							<Longitude>-2.9055</Longitude>
							<Latitude>53.415562</Latitude>
						</Location>
						<Location>
							<Longitude>-2.902524</Longitude>
							<Latitude>53.416411</Latitude>
						</Location>
						<Location>
							<Longitude>-2.901955</Longitude>
							<Latitude>53.416541</Latitude>
						</Location>
						<Location>
							<Longitude>-2.901446</Longitude>
							<Latitude>53.416653</Latitude>
						</Location>
						<Location>
							<Longitude>-2.90137</Longitude>
							<Latitude>53.416663</Latitude>
						</Location>
					</Mapping>
				</Track>
			</RouteLink>
			<RouteLink id="RL_1-9-_-y11-19-O-1-19">
				<From>
					<StopPointRef>2800S44002A</StopPointRef>
				</From>
				<To>
					<StopPointRef>2800S44197A</StopPointRef>
				</To>
				<Distance>424</Distance>
				<Direction>outbound</Direction>
				<Track>
					<Mapping>
						<Location>
							<Longitude>-2.90137</Longitude>
							<Latitude>53.416663</Latitude>
						</Location>
						<Location>
							<Longitude>-2.900156</Longitude>
							<Latitude>53.416879</Latitude>
						</Location>
						<Location>
							<Longitude>-2.897382</Longitude>
							<Latitude>53.417331</Latitude>
						</Location>
						<Location>
							<Longitude>-2.895973</Longitude>
							<Latitude>53.417557</Latitude>
						</Location>
						<Location>
							<Longitude>-2.895301</Longitude>
							<Latitude>53.417796</Latitude>
						</Location>
					</Mapping>
				</Track>
			</RouteLink>
			<RouteLink id="RL_1-9-_-y11-19-O-1-20">
				<From>
					<StopPointRef>2800S44197A</StopPointRef>
				</From>
				<To>
					<StopPointRef>2800S44003B</StopPointRef>
				</To>
				<Distance>241</Distance>
				<Direction>outbound</Direction>
				<Track>
					<Mapping>
						<Location>
							<Longitude>-2.895301</Longitude>
							<Latitude>53.417796</Latitude>
						</Location>
						<Location>
							<Longitude>-2.895181</Longitude>
							<Latitude>53.417833</Latitude>
						</Location>
						<Location>
							<Longitude>-2.894197</Longitude>
							<Latitude>53.418281</Latitude>
						</Location>
						<Location>
							<Longitude>-2.893554</Longitude>
							<Latitude>53.418456</Latitude>
						</Location>
						<Location>
							<Longitude>-2.892894</Longitude>
							<Latitude>53.418551</Latitude>
						</Location>
						<Location>
							<Longitude>-2.892022</Longitude>
							<Latitude>53.418585</Latitude>
						</Location>
					</Mapping>
				</Track>
			</RouteLink>
			<RouteLink id="RL_1-9-_-y11-19-O-1-21">
				<From>
					<StopPointRef>2800S44003B</StopPointRef>
				</From>
				<To>
					<StopPointRef>2800S44004B</StopPointRef>
				</To>
				<Distance>402</Distance>
				<Direction>outbound</Direction>
				<Track>
					<Mapping>
						<Location>
							<Longitude>-2.892022</Longitude>
							<Latitude>53.418585</Latitude>
						</Location>
						<Location>
							<Longitude>-2.891616</Longitude>
							<Latitude>53.418606</Latitude>
						</Location>
						<Location>
							<Longitude>-2.88983</Longitude>
							<Latitude>53.418799</Latitude>
						</Location>
						<Location>
							<Longitude>-2.889125</Longitude>
							<Latitude>53.418912</Latitude>
						</Location>
						<Location>
							<Longitude>-2.888781</Longitude>
							<Latitude>53.41904</Latitude>
						</Location>
						<Location>
							<Longitude>-2.888405</Longitude>
							<Latitude>53.419034</Latitude>
						</Location>
						<Location>
							<Longitude>-2.888284</Longitude>
							<Latitude>53.418981</Latitude>
						</Location>
						<Location>
							<Longitude>-2.888204</Longitude>
							<Latitude>53.418784</Latitude>
						</Location>
						<Location>
							<Longitude>-2.888366</Longitude>
							<Latitude>53.41863</Latitude>
						</Location>
						<Location>
							<Longitude>-2.887652</Longitude>
							<Latitude>53.418294</Latitude>
						</Location>
						<Location>
							<Longitude>-2.887151</Longitude>
							<Latitude>53.418082</Latitude>
						</Location>
					</Mapping>
				</Track>
			</RouteLink>
			<RouteLink id="RL_1-9-_-y11-19-O-1-22">
				<From>
					<StopPointRef>2800S44004B</StopPointRef>
				</From>
				<To>
					<StopPointRef>2800S44084B</StopPointRef>
				</To>
				<Distance>370</Distance>
				<Direction>outbound</Direction>
				<Track>
					<Mapping>
						<Location>
							<Longitude>-2.887151</Longitude>
							<Latitude>53.418082</Latitude>
						</Location>
						<Location>
							<Longitude>-2.886377</Longitude>
							<Latitude>53.417746</Latitude>
						</Location>
						<Location>
							<Longitude>-2.886119</Longitude>
							<Latitude>53.417649</Latitude>
						</Location>
						<Location>
							<Longitude>-2.884952</Longitude>
							<Latitude>53.417244</Latitude>
						</Location>
						<Location>
							<Longitude>-2.883983</Longitude>
							<Latitude>53.416946</Latitude>
						</Location>
						<Location>
							<Longitude>-2.882273</Longitude>
							<Latitude>53.416491</Latitude>
						</Location>
					</Mapping>
				</Track>
			</RouteLink>
			<RouteLink id="RL_1-9-_-y11-19-O-1-23">
				<From>
					<StopPointRef>2800S44084B</StopPointRef>
				</From>
				<To>
					<StopPointRef>2800S44085B</StopPointRef>
				</To>
				<Distance>461</Distance>
				<Direction>outbound</Direction>
				<Track>
					<Mapping>
						<Location>
							<Longitude>-2.882273</Longitude>
							<Latitude>53.416491</Latitude>
						</Location>
						<Location>
							<Longitude>-2.881592</Longitude>
							<Latitude>53.416307</Latitude>
						</Location>
						<Location>
							<Longitude>-2.880789</Longitude>
							<Latitude>53.416034</Latitude>
						</Location>
						<Location>
							<Longitude>-2.88041</Longitude>
							<Latitude>53.415884</Latitude>
						</Location>
						<Location>
							<Longitude>-2.878636</Longitude>
							<Latitude>53.415214</Latitude>
						</Location>
						<Location>
							<Longitude>-2.876771</Longitude>
							<Latitude>53.4145</Latitude>
						</Location>
						<Location>
							<Longitude>-2.876346</Longitude>
							<Latitude>53.414341</Latitude>
						</Location>
					</Mapping>
				</Track>
			</RouteLink>
			<RouteLink id="RL_1-9-_-y11-19-O-1-24">
				<From>
					<StopPointRef>2800S44085B</StopPointRef>
				</From>
				<To>
					<StopPointRef>2800S44086B</StopPointRef>
				</To>
				<Distance>366</Distance>
				<Direction>outbound</Direction>
				<Track>
					<Mapping>
						<Location>
							<Longitude>-2.876346</Longitude>
							<Latitude>53.414341</Latitude>
						</Location>
						<Location>
							<Longitude>-2.875785</Longitude>
							<Latitude>53.41413</Latitude>
						</Location>
						<Location>
							<Longitude>-2.875012</Longitude>
							<Latitude>53.413839</Latitude>
						</Location>
						<Location>
							<Longitude>-2.874512</Longitude>
							<Latitude>53.413653</Latitude>
						</Location>
						<Location>
							<Longitude>-2.87436</Longitude>
							<Latitude>53.413583</Latitude>
						</Location>
						<Location>
							<Longitude>-2.873495</Longitude>
							<Latitude>53.413229</Latitude>
						</Location>
						<Location>
							<Longitude>-2.872267</Longitude>
							<Latitude>53.41278</Latitude>
						</Location>
						<Location>
							<Longitude>-2.871677</Longitude>
							<Latitude>53.412614</Latitude>
						</Location>
					</Mapping>
				</Track>
			</RouteLink>
			<RouteLink id="RL_1-9-_-y11-19-O-1-25">
				<From>
					<StopPointRef>2800S44086B</StopPointRef>
				</From>
				<To>
					<StopPointRef>2800S44087B</StopPointRef>
				</To>
				<Distance>358</Distance>
				<Direction>outbound</Direction>
				<Track>
					<Mapping>
						<Location>
							<Longitude>-2.871677</Longitude>
							<Latitude>53.412614</Latitude>
						</Location>
						<Location>
							<Longitude>-2.871102</Longitude>
							<Latitude>53.412447</Latitude>
						</Location>
						<Location>
							<Longitude>-2.870691</Longitude>
							<Latitude>53.412944</Latitude>
						</Location>
						<Location>
							<Longitude>-2.870178</Longitude>
							<Latitude>53.413622</Latitude>
						</Location>
						<Location>
							<Longitude>-2.869241</Longitude>
							<Latitude>53.414878</Latitude>
						</Location>
						<Location>
							<Longitude>-2.869138</Longitude>
							<Latitude>53.415032</Latitude>
						</Location>
					</Mapping>
				</Track>
			</RouteLink>
			<RouteLink id="RL_1-9-_-y11-19-O-1-26">
				<From>
					<StopPointRef>2800S44087B</StopPointRef>
				</From>
				<To>
					<StopPointRef>2800S44088B</StopPointRef>
				</To>
				<Distance>317</Distance>
				<Direction>outbound</Direction>
				<Track>
					<Mapping>
						<Location>
							<Longitude>-2.869138</Longitude>
							<Latitude>53.415032</Latitude>
						</Location>
						<Location>
							<Longitude>-2.868759</Longitude>
							<Latitude>53.41561</Latitude>
						</Location>
						<Location>
							<Longitude>-2.867762</Longitude>
							<Latitude>53.415411</Latitude>
						</Location>
						<Location>
							<Longitude>-2.86681</Longitude>
							<Latitude>53.41522</Latitude>
						</Location>
						<Location>
							<Longitude>-2.865224</Longitude>
							<Latitude>53.414908</Latitude>
						</Location>
					</Mapping>
				</Track>
			</RouteLink>
			<RouteLink id="RL_1-9-_-y11-19-O-1-27">
				<From>
					<StopPointRef>2800S44088B</StopPointRef>
				</From>
				<To>
					<StopPointRef>2800S44089B</StopPointRef>
				</To>
				<Distance>277</Distance>
				<Direction>outbound</Direction>
				<Track>
					<Mapping>
						<Location>
							<Longitude>-2.865224</Longitude>
							<Latitude>53.414908</Latitude>
						</Location>
						<Location>
							<Longitude>-2.864469</Longitude>
							<Latitude>53.41476</Latitude>
						</Location>
						<Location>
							<Longitude>-2.863565</Longitude>
							<Latitude>53.414704</Latitude>
						</Location>
						<Location>
							<Longitude>-2.862631</Longitude>
							<Latitude>53.414639</Latitude>
						</Location>
						<Location>
							<Longitude>-2.861637</Longitude>
							<Latitude>53.414574</Latitude>
						</Location>
						<Location>
							<Longitude>-2.861109</Longitude>
							<Latitude>53.414542</Latitude>
						</Location>
					</Mapping>
				</Track>
			</RouteLink>
			<RouteLink id="RL_1-9-_-y11-19-O-1-28">
				<From>
					<StopPointRef>2800S44089B</StopPointRef>
				</From>
				<To>
					<StopPointRef>2800S44090B</StopPointRef>
				</To>
				<Distance>233</Distance>
				<Direction>outbound</Direction>
				<Track>
					<Mapping>
						<Location>
							<Longitude>-2.861109</Longitude>
							<Latitude>53.414542</Latitude>
						</Location>
						<Location>
							<Longitude>-2.860642</Longitude>
							<Latitude>53.414509</Latitude>
						</Location>
						<Location>
							<Longitude>-2.859678</Longitude>
							<Latitude>53.414444</Latitude>
						</Location>
						<Location>
							<Longitude>-2.858322</Longitude>
							<Latitude>53.414364</Latitude>
						</Location>
						<Location>
							<Longitude>-2.857629</Longitude>
							<Latitude>53.414315</Latitude>
						</Location>
					</Mapping>
				</Track>
			</RouteLink>
			<RouteLink id="RL_1-9-_-y11-19-O-1-29">
				<From>
					<StopPointRef>2800S44090B</StopPointRef>
				</From>
				<To>
					<StopPointRef>2800S44091B</StopPointRef>
				</To>
				<Distance>365</Distance>
				<Direction>outbound</Direction>
				<Track>
					<Mapping>
						<Location>
							<Longitude>-2.857629</Longitude>
							<Latitude>53.414315</Latitude>
						</Location>
						<Location>
							<Longitude>-2.856093</Longitude>
							<Latitude>53.414218</Latitude>
						</Location>
						<Location>
							<Longitude>-2.855008</Longitude>
							<Latitude>53.414154</Latitude>
						</Location>
						<Location>
							<Longitude>-2.854812</Longitude>
							<Latitude>53.414138</Latitude>
						</Location>
						<Location>
							<Longitude>-2.853167</Longitude>
							<Latitude>53.413889</Latitude>
						</Location>
						<Location>
							<Longitude>-2.852232</Longitude>
							<Latitude>53.413752</Latitude>
						</Location>
					</Mapping>
				</Track>
			</RouteLink>
			<RouteLink id="RL_1-9-_-y11-19-O-1-30">
				<From>
					<StopPointRef>2800S44091B</StopPointRef>
				</From>
				<To>
					<StopPointRef>2800S44038A</StopPointRef>
				</To>
				<Distance>330</Distance>
				<Direction>outbound</Direction>
				<Track>
					<Mapping>
						<Location>
							<Longitude>-2.852232</Longitude>
							<Latitude>53.413752</Latitude>
						</Location>
						<Location>
							<Longitude>-2.851779</Longitude>
							<Latitude>53.413683</Latitude>
						</Location>
						<Location>
							<Longitude>-2.848868</Longitude>
							<Latitude>53.413308</Latitude>
						</Location>
						<Location>
							<Longitude>-2.848747</Longitude>
							<Latitude>53.413291</Latitude>
						</Location>
						<Location>
							<Longitude>-2.847418</Longitude>
							<Latitude>53.413049</Latitude>
						</Location>
					</Mapping>
				</Track>
			</RouteLink>
			<RouteLink id="RL_1-9-_-y11-19-O-1-31">
				<From>
					<StopPointRef>2800S44038A</StopPointRef>
				</From>
				<To>
					<StopPointRef>2800S44039B</StopPointRef>
				</To>
				<Distance>272</Distance>
				<Direction>outbound</Direction>
				<Track>
					<Mapping>
						<Location>
							<Longitude>-2.847418</Longitude>
							<Latitude>53.413049</Latitude>
						</Location>
						<Location>
							<Longitude>-2.845606</Longitude>
							<Latitude>53.41272</Latitude>
						</Location>
						<Location>
							<Longitude>-2.843975</Longitude>
							<Latitude>53.412381</Latitude>
						</Location>
						<Location>
							<Longitude>-2.843566</Longitude>
							<Latitude>53.412249</Latitude>
						</Location>
					</Mapping>
				</Track>
			</RouteLink>
			<RouteLink id="RL_1-9-_-y11-19-O-1-32">
				<From>
					<StopPointRef>2800S44039B</StopPointRef>
				</From>
				<To>
					<StopPointRef>2800S44049A</StopPointRef>
				</To>
				<Distance>386</Distance>
				<Direction>outbound</Direction>
				<Track>
					<Mapping>
						<Location>
							<Longitude>-2.843566</Longitude>
							<Latitude>53.412249</Latitude>
						</Location>
						<Location>
							<Longitude>-2.843385</Longitude>
							<Latitude>53.412197</Latitude>
						</Location>
						<Location>
							<Longitude>-2.842657</Longitude>
							<Latitude>53.411941</Latitude>
						</Location>
						<Location>
							<Longitude>-2.842505</Longitude>
							<Latitude>53.411852</Latitude>
						</Location>
						<Location>
							<Longitude>-2.843385</Longitude>
							<Latitude>53.411459</Latitude>
						</Location>
						<Location>
							<Longitude>-2.843563</Longitude>
							<Latitude>53.411332</Latitude>
						</Location>
						<Location>
							<Longitude>-2.84353</Longitude>
							<Latitude>53.411162</Latitude>
						</Location>
						<Location>
							<Longitude>-2.842697</Longitude>
							<Latitude>53.410898</Latitude>
						</Location>
						<Location>
							<Longitude>-2.842196</Longitude>
							<Latitude>53.41065</Latitude>
						</Location>
						<Location>
							<Longitude>-2.841587</Longitude>
							<Latitude>53.410304</Latitude>
						</Location>
						<Location>
							<Longitude>-2.841267</Longitude>
							<Latitude>53.410108</Latitude>
						</Location>
					</Mapping>
				</Track>
			</RouteLink>
			<RouteLink id="RL_1-9-_-y11-19-O-1-33">
				<From>
					<StopPointRef>2800S44049A</StopPointRef>
				</From>
				<To>
					<StopPointRef>2800S44188E</StopPointRef>
				</To>
				<Distance>229</Distance>
				<Direction>outbound</Direction>
				<Track>
					<Mapping>
						<Location>
							<Longitude>-2.841267</Longitude>
							<Latitude>53.410108</Latitude>
						</Location>
						<Location>
							<Longitude>-2.841008</Longitude>
							<Latitude>53.409948</Latitude>
						</Location>
						<Location>
							<Longitude>-2.84035</Longitude>
							<Latitude>53.410133</Latitude>
						</Location>
						<Location>
							<Longitude>-2.83985</Longitude>
							<Latitude>53.409974</Latitude>
						</Location>
						<Location>
							<Longitude>-2.839142</Longitude>
							<Latitude>53.409916</Latitude>
						</Location>
						<Location>
							<Longitude>-2.838091</Longitude>
							<Latitude>53.409987</Latitude>
						</Location>
					</Mapping>
				</Track>
			</RouteLink>
			<RouteLink id="RL_1-9-_-y11-19-O-1-34">
				<From>
					<StopPointRef>2800S44188E</StopPointRef>
				</From>
				<To>
					<StopPointRef>2800S51018B</StopPointRef>
				</To>
				<Distance>253</Distance>
				<Direction>outbound</Direction>
				<Track>
					<Mapping>
						<Location>
							<Longitude>-2.838091</Longitude>
							<Latitude>53.409987</Latitude>
						</Location>
						<Location>
							<Longitude>-2.837595</Longitude>
							<Latitude>53.410026</Latitude>
						</Location>
						<Location>
							<Longitude>-2.837164</Longitude>
							<Latitude>53.410308</Latitude>
						</Location>
						<Location>
							<Longitude>-2.83552</Longitude>
							<Latitude>53.410094</Latitude>
						</Location>
						<Location>
							<Longitude>-2.835434</Longitude>
							<Latitude>53.410302</Latitude>
						</Location>
						<Location>
							<Longitude>-2.835109</Longitude>
							<Latitude>53.410619</Latitude>
						</Location>
					</Mapping>
				</Track>
			</RouteLink>
			<RouteLink id="RL_1-9-_-y11-19-O-1-35">
				<From>
					<StopPointRef>2800S51018B</StopPointRef>
				</From>
				<To>
					<StopPointRef>2800S51019B</StopPointRef>
				</To>
				<Distance>192</Distance>
				<Direction>outbound</Direction>
				<Track>
					<Mapping>
						<Location>
							<Longitude>-2.835109</Longitude>
							<Latitude>53.410619</Latitude>
						</Location>
						<Location>
							<Longitude>-2.834829</Longitude>
							<Latitude>53.410899</Latitude>
						</Location>
						<Location>
							<Longitude>-2.83462</Longitude>
							<Latitude>53.410991</Latitude>
						</Location>
						<Location>
							<Longitude>-2.833331</Longitude>
							<Latitude>53.411242</Latitude>
						</Location>
						<Location>
							<Longitude>-2.832626</Longitude>
							<Latitude>53.411346</Latitude>
						</Location>
					</Mapping>
				</Track>
			</RouteLink>
			<RouteLink id="RL_1-9-_-y11-19-O-1-36">
				<From>
					<StopPointRef>2800S51019B</StopPointRef>
				</From>
				<To>
					<StopPointRef>2800S51020B</StopPointRef>
				</To>
				<Distance>230</Distance>
				<Direction>outbound</Direction>
				<Track>
					<Mapping>
						<Location>
							<Longitude>-2.832626</Longitude>
							<Latitude>53.411346</Latitude>
						</Location>
						<Location>
							<Longitude>-2.831351</Longitude>
							<Latitude>53.411526</Latitude>
						</Location>
						<Location>
							<Longitude>-2.830434</Longitude>
							<Latitude>53.411586</Latitude>
						</Location>
						<Location>
							<Longitude>-2.829217</Longitude>
							<Latitude>53.411667</Latitude>
						</Location>
					</Mapping>
				</Track>
			</RouteLink>
			<RouteLink id="RL_1-9-_-y11-19-O-1-37">
				<From>
					<StopPointRef>2800S51020B</StopPointRef>
				</From>
				<To>
					<StopPointRef>2800S51021A</StopPointRef>
				</To>
				<Distance>253</Distance>
				<Direction>outbound</Direction>
				<Track>
					<Mapping>
						<Location>
							<Longitude>-2.829217</Longitude>
							<Latitude>53.411667</Latitude>
						</Location>
						<Location>
							<Longitude>-2.828105</Longitude>
							<Latitude>53.411737</Latitude>
						</Location>
						<Location>
							<Longitude>-2.827865</Longitude>
							<Latitude>53.41173</Latitude>
						</Location>
						<Location>
							<Longitude>-2.827575</Longitude>
							<Latitude>53.411534</Latitude>
						</Location>
						<Location>
							<Longitude>-2.827483</Longitude>
							<Latitude>53.411463</Latitude>
						</Location>
						<Location>
							<Longitude>-2.827377</Longitude>
							<Latitude>53.411401</Latitude>
						</Location>
						<Location>
							<Longitude>-2.826018</Longitude>
							<Latitude>53.411167</Latitude>
						</Location>
						<Location>
							<Longitude>-2.825732</Longitude>
							<Latitude>53.411133</Latitude>
						</Location>
					</Mapping>
				</Track>
			</RouteLink>
